{"totalResultsCount":76,"geonames":[{"countryName":"Thailand","adminCode1":"40","fclName":"country, state, region,...","countryCode":"TH","lng":100.4166667,"fcodeName":"first-order administrative division","toponymName":"Krung Thep Mahanakhon","fcl":"A","numberOfChildren":49,"name":"Bangkok","fcode":"ADM1","geonameId":1609348,"lat":13.7166667,"adminName1":"Bangkok","population":5104476},{"countryName":"Thailand","adminCode1":"48","fclName":"country, state, region,...","countryCode":"TH","lng":102.1666667,"fcodeName":"first-order administrative division","toponymName":"Changawat Chanthaburi","fcl":"A","numberOfChildren":10,"name":"Changawat Chanthaburi","fcode":"ADM1","geonameId":1611268,"lat":12.8333333,"adminName1":"Chanthaburi","population":547887},{"countryName":"Thailand","adminCode1":"77","fclName":"country, state, region,...","countryCode":"TH","lng":104.75,"fcodeName":"first-order administrative division","toponymName":"Changwat Amnat Charoen","fcl":"A","numberOfChildren":7,"name":"Changwat Amnat Charoen","fcode":"ADM1","geonameId":1906689,"lat":15.9166667,"adminName1":"Amnat Charoen","population":386737},{"countryName":"Thailand","adminCode1":"35","fclName":"country, state, region,...","countryCode":"TH","lng":100.3666667,"fcodeName":"first-order administrative division","toponymName":"Changwat Ang Thong","fcl":"A","numberOfChildren":7,"name":"Changwat Ang Thong","fcode":"ADM1","geonameId":1621034,"lat":14.6166667,"adminName1":"Ang Thong","population":318583},{"countryName":"Thailand","adminCode1":"28","fclName":"country, state, region,...","countryCode":"TH","lng":102.993324,"fcodeName":"first-order administrative division","toponymName":"Changwat Buriram","fcl":"A","numberOfChildren":23,"name":"Changwat Buriram","fcode":"ADM1","geonameId":1611452,"lat":14.848226,"adminName1":"Buriram","population":1493359},{"countryName":"Thailand","adminCode1":"44","fclName":"country, state, region,...","countryCode":"TH","lng":101.4166667,"fcodeName":"first-order administrative division","toponymName":"Changwat Chachoengsao","fcl":"A","numberOfChildren":11,"name":"Changwat Chachoengsao","fcode":"ADM1","geonameId":1611438,"lat":13.6166667,"adminName1":"Chachoengsao","population":669036},{"countryName":"Thailand","adminCode1":"32","fclName":"country, state, region,...","countryCode":"TH","lng":100.1,"fcodeName":"first-order administrative division","toponymName":"Changwat Chai Nat","fcl":"A","numberOfChildren":8,"name":"Changwat Chai Nat","fcode":"ADM1","geonameId":1611415,"lat":15.1166667,"adminName1":"Chai Nat","population":336854},{"countryName":"Thailand","adminCode1":"26","fclName":"country, state, region,...","countryCode":"TH","lng":102,"fcodeName":"first-order administrative division","toponymName":"Changwat Chaiyaphum","fcl":"A","numberOfChildren":15,"name":"Changwat Chaiyaphum","fcode":"ADM1","geonameId":1611406,"lat":15.75,"adminName1":"Chaiyaphum","population":1185521},{"countryName":"Thailand","adminCode1":"02","fclName":"country, state, region,...","countryCode":"TH","lng":99,"fcodeName":"first-order administrative division","toponymName":"Changwat Chiang Mai","fcl":"A","numberOfChildren":25,"name":"Changwat Chiang Mai","fcode":"ADM1","geonameId":1153670,"lat":18.75,"adminName1":"Chiang Mai","population":1763560},{"countryName":"Thailand","adminCode1":"03","fclName":"country, state, region,...","countryCode":"TH","lng":99.9166667,"fcodeName":"first-order administrative division","toponymName":"Changwat Chiang Rai","fcl":"A","numberOfChildren":18,"name":"Changwat Chiang Rai","fcode":"ADM1","geonameId":1153668,"lat":19.9166667,"adminName1":"Chiang Rai","population":1494052},{"countryName":"Thailand","adminCode1":"46","fclName":"country, state, region,...","countryCode":"TH","lng":101.3,"fcodeName":"first-order administrative division","toponymName":"Changwat Chon Buri","fcl":"A","numberOfChildren":11,"name":"Changwat Chon Buri","fcode":"ADM1","geonameId":1611108,"lat":13.3,"adminName1":"Chon Buri","population":1289424},{"countryName":"Thailand","adminCode1":"58","fclName":"country, state, region,...","countryCode":"TH","lng":98.8333333,"fcodeName":"first-order administrative division","toponymName":"Changwat Chumphon","fcl":"A","numberOfChildren":8,"name":"Changwat Chumphon","fcode":"ADM1","geonameId":1153555,"lat":10.3333333,"adminName1":"Chumphon","population":511972},{"countryName":"Thailand","adminCode1":"23","fclName":"country, state, region,...","countryCode":"TH","lng":103.5,"fcodeName":"first-order administrative division","toponymName":"Changwat Kalasin","fcl":"A","numberOfChildren":18,"name":"Changwat Kalasin","fcode":"ADM1","geonameId":1610468,"lat":16.5,"adminName1":"Kalasin","population":1084082},{"countryName":"Thailand","adminCode1":"11","fclName":"country, state, region,...","countryCode":"TH","lng":99.5,"fcodeName":"first-order administrative division","toponymName":"Changwat Kamphaeng Phet","fcl":"A","numberOfChildren":10,"name":"Changwat Kamphaeng Phet","fcode":"ADM1","geonameId":1153089,"lat":16.25,"adminName1":"Kamphaeng Phet","population":912529},{"countryName":"Thailand","adminCode1":"50","fclName":"country, state, region,...","countryCode":"TH","lng":99.1,"fcodeName":"first-order administrative division","toponymName":"Changwat Kanchanaburi","fcl":"A","numberOfChildren":13,"name":"Changwat Kanchanaburi","fcode":"ADM1","geonameId":1153080,"lat":14.6333333,"adminName1":"Kanchanaburi","population":896178},{"countryName":"Thailand","adminCode1":"22","fclName":"country, state, region,...","countryCode":"TH","lng":102.0833333,"fcodeName":"first-order administrative division","toponymName":"Changwat Khon Kaen","fcl":"A","numberOfChildren":26,"name":"Changwat Khon Kaen","fcode":"ADM1","geonameId":1609775,"lat":16.5,"adminName1":"Khon Kaen","population":1807627},{"countryName":"Thailand","adminCode1":"63","fclName":"country, state, region,...","countryCode":"TH","lng":99.1666667,"fcodeName":"first-order administrative division","toponymName":"Changwat Krabi","fcl":"A","numberOfChildren":8,"name":"Changwat Krabi","fcode":"ADM1","geonameId":1152631,"lat":8.25,"adminName1":"Krabi","population":442240},{"countryName":"Thailand","adminCode1":"06","fclName":"country, state, region,...","countryCode":"TH","lng":99.5,"fcodeName":"first-order administrative division","toponymName":"Changwat Lampang","fcl":"A","numberOfChildren":12,"name":"Changwat Lampang","fcode":"ADM1","geonameId":1152472,"lat":18.3333333,"adminName1":"Lampang","population":823111},{"countryName":"Thailand","adminCode1":"05","fclName":"country, state, region,...","countryCode":"TH","lng":98.9166667,"fcodeName":"first-order administrative division","toponymName":"Changwat Lamphun","fcl":"A","numberOfChildren":8,"name":"Changwat Lamphun","fcode":"ADM1","geonameId":1152467,"lat":18.25,"adminName1":"Lamphun","population":398151},{"countryName":"Thailand","adminCode1":"18","fclName":"country, state, region,...","countryCode":"TH","lng":101.5,"fcodeName":"first-order administrative division","toponymName":"Changwat Loei","fcl":"A","numberOfChildren":12,"name":"Changwat Loei","fcode":"ADM1","geonameId":1609070,"lat":17.4166667,"adminName1":"Loei","population":676087},{"countryName":"Thailand","adminCode1":"34","fclName":"country, state, region,...","countryCode":"TH","lng":100.75,"fcodeName":"first-order administrative division","toponymName":"Changwat Lop Buri","fcl":"A","numberOfChildren":11,"name":"Changwat Lop Buri","fcode":"ADM1","geonameId":1609031,"lat":14.9333333,"adminName1":"Lop Buri","population":795094},{"countryName":"Thailand","adminCode1":"01","fclName":"country, state, region,...","countryCode":"TH","lng":97.9166667,"fcodeName":"first-order administrative division","toponymName":"Changwat Mae Hong Son","fcl":"A","numberOfChildren":5,"name":"Changwat Mae Hong Son","fcode":"ADM1","geonameId":1152221,"lat":18.75,"adminName1":"Mae Hong Son","population":287828},{"countryName":"Thailand","adminCode1":"24","fclName":"country, state, region,...","countryCode":"TH","lng":103.6666667,"fcodeName":"first-order administrative division","toponymName":"Changwat Maha Sarakham","fcl":"A","numberOfChildren":13,"name":"Changwat Maha Sarakham","fcode":"ADM1","geonameId":1608899,"lat":16.3333333,"adminName1":"Maha Sarakham","population":936779},{"countryName":"Thailand","adminCode1":"78","fclName":"country, state, region,...","countryCode":"TH","lng":104.5,"fcodeName":"first-order administrative division","toponymName":"Changwat Mukdahan","fcl":"A","numberOfChildren":6,"name":"Changwat Mukdahan","fcode":"ADM1","geonameId":1608595,"lat":16.5833333,"adminName1":"Mukdahan","population":377367},{"countryName":"Thailand","adminCode1":"43","fclName":"country, state, region,...","countryCode":"TH","lng":101.1,"fcodeName":"first-order administrative division","toponymName":"Changwat Nakhon Nayok","fcl":"A","numberOfChildren":4,"name":"Changwat Nakhon Nayok","fcode":"ADM1","geonameId":1608538,"lat":14.1666667,"adminName1":"Nakhon Nayok","population":263222},{"countryName":"Thailand","adminCode1":"53","fclName":"country, state, region,...","countryCode":"TH","lng":100.0833333,"fcodeName":"first-order administrative division","toponymName":"Changwat Nakhon Pathom","fcl":"A","numberOfChildren":7,"name":"Changwat Nakhon Pathom","fcode":"ADM1","geonameId":1608533,"lat":13.9833333,"adminName1":"Nakhon Pathom","population":790753},{"countryName":"Thailand","adminCode1":"73","fclName":"country, state, region,...","countryCode":"TH","lng":104.4166667,"fcodeName":"first-order administrative division","toponymName":"Changwat Nakhon Phanom","fcl":"A","numberOfChildren":11,"name":"Changwat Nakhon Phanom","fcode":"ADM1","geonameId":1608530,"lat":17.3333333,"adminName1":"Nakhon Phanom","population":769860},{"countryName":"Thailand","adminCode1":"27","fclName":"country, state, region,...","countryCode":"TH","lng":102.1666667,"fcodeName":"first-order administrative division","toponymName":"Changwat Nakhon Ratchasima","fcl":"A","numberOfChildren":29,"name":"Changwat Nakhon Ratchasima","fcode":"ADM1","geonameId":1608528,"lat":15,"adminName1":"Nakhon Ratchasima","population":2604980},{"countryName":"Thailand","adminCode1":"16","fclName":"country, state, region,...","countryCode":"TH","lng":100.0833333,"fcodeName":"first-order administrative division","toponymName":"Changwat Nakhon Sawan","fcl":"A","numberOfChildren":15,"name":"Changwat Nakhon Sawan","fcode":"ADM1","geonameId":1608526,"lat":15.7,"adminName1":"Nakhon Sawan","population":1178742},{"countryName":"Thailand","adminCode1":"64","fclName":"country, state, region,...","countryCode":"TH","lng":100,"fcodeName":"first-order administrative division","toponymName":"Changwat Nakhon Si Thammarat","fcl":"A","numberOfChildren":23,"name":"Changwat Nakhon Si Thammarat","fcode":"ADM1","geonameId":1608525,"lat":8.25,"adminName1":"Nakhon Si Thammarat","population":1544410},{"countryName":"Thailand","adminCode1":"04","fclName":"country, state, region,...","countryCode":"TH","lng":100.6666667,"fcodeName":"first-order administrative division","toponymName":"Changwat Nan","fcl":"A","numberOfChildren":14,"name":"Changwat Nan","fcode":"ADM1","geonameId":1608451,"lat":18.8333333,"adminName1":"Nan","population":530895},{"countryName":"Thailand","adminCode1":"31","fclName":"country, state, region,...","countryCode":"TH","lng":101.75,"fcodeName":"first-order administrative division","toponymName":"Changwat Narathiwat","fcl":"A","numberOfChildren":12,"name":"Changwat Narathiwat","fcode":"ADM1","geonameId":1608408,"lat":6.3333333,"adminName1":"Narathiwat","population":751922},{"countryName":"Thailand","adminCode1":"79","fclName":"country, state, region,...","countryCode":"TH","lng":102.25,"fcodeName":"first-order administrative division","toponymName":"Changwat Nong Bua Lamphu","fcl":"A","numberOfChildren":6,"name":"Changwat Nong Bua Lamphu","fcode":"ADM1","geonameId":1906690,"lat":17.25,"adminName1":"Nong Bua Lamphu","population":482207},{"countryName":"Thailand","adminCode1":"17","fclName":"country, state, region,...","countryCode":"TH","lng":103.0833333,"fcodeName":"first-order administrative division","toponymName":"Changwat Nong Khai","fcl":"A","numberOfChildren":16,"name":"Changwat Nong Khai","fcode":"ADM1","geonameId":1608231,"lat":17.9166667,"adminName1":"Nong Khai","population":939454},{"countryName":"Thailand","adminCode1":"38","fclName":"country, state, region,...","countryCode":"TH","lng":100.5,"fcodeName":"first-order administrative division","toponymName":"Changwat Nonthaburi","fcl":"A","numberOfChildren":5,"name":"Changwat Nonthaburi","fcode":"ADM1","geonameId":1608132,"lat":13.75,"adminName1":"Nonthaburi","population":1045341},{"countryName":"Thailand","adminCode1":"39","fclName":"country, state, region,...","countryCode":"TH","lng":100.6,"fcodeName":"first-order administrative division","toponymName":"Changwat Pathum Thani","fcl":"A","numberOfChildren":7,"name":"Changwat Pathum Thani","fcode":"ADM1","geonameId":1607982,"lat":14.0833333,"adminName1":"Pathum Thani","population":767951},{"countryName":"Thailand","adminCode1":"69","fclName":"country, state, region,...","countryCode":"TH","lng":100.4166667,"fcodeName":"first-order administrative division","toponymName":"Changwat Pattani","fcl":"A","numberOfChildren":9,"name":"Changwat Pattani","fcode":"ADM1","geonameId":1607976,"lat":6.75,"adminName1":"Pattani","population":671530},{"countryName":"Thailand","adminCode1":"61","fclName":"country, state, region,...","countryCode":"TH","lng":98.6666667,"fcodeName":"first-order administrative division","toponymName":"Changwat Phangnga","fcl":"A","numberOfChildren":7,"name":"Changwat Phangnga","fcode":"ADM1","geonameId":1151462,"lat":8.25,"adminName1":"Phangnga","population":245236},{"countryName":"Thailand","adminCode1":"66","fclName":"country, state, region,...","countryCode":"TH","lng":100.0833333,"fcodeName":"first-order administrative division","toponymName":"Changwat Phatthalung","fcl":"A","numberOfChildren":11,"name":"Changwat Phatthalung","fcode":"ADM1","geonameId":1607778,"lat":7.5,"adminName1":"Phatthalung","population":512157},{"countryName":"Thailand","adminCode1":"41","fclName":"country, state, region,...","countryCode":"TH","lng":100.25,"fcodeName":"first-order administrative division","toponymName":"Changwat Phayao","fcl":"A","numberOfChildren":8,"name":"Changwat Phayao","fcode":"ADM1","geonameId":1607758,"lat":19.25,"adminName1":"Phayao","population":512957},{"countryName":"Thailand","adminCode1":"14","fclName":"country, state, region,...","countryCode":"TH","lng":101.0833333,"fcodeName":"first-order administrative division","toponymName":"Changwat Phetchabun","fcl":"A","numberOfChildren":10,"name":"Changwat Phetchabun","fcode":"ADM1","geonameId":1607736,"lat":16.25,"adminName1":"Phetchabun","population":1151325},{"countryName":"Thailand","adminCode1":"56","fclName":"country, state, region,...","countryCode":"TH","lng":99.5833333,"fcodeName":"first-order administrative division","toponymName":"Changwat Phetchaburi","fcl":"A","numberOfChildren":8,"name":"Changwat Phetchaburi","fcode":"ADM1","geonameId":1151416,"lat":12.9666667,"adminName1":"Phetchaburi","population":499811},{"countryName":"Thailand","adminCode1":"13","fclName":"country, state, region,...","countryCode":"TH","lng":100.4166667,"fcodeName":"first-order administrative division","toponymName":"Changwat Phichit","fcl":"A","numberOfChildren":11,"name":"Changwat Phichit","fcode":"ADM1","geonameId":1607724,"lat":16.25,"adminName1":"Phichit","population":614516},{"countryName":"Thailand","adminCode1":"12","fclName":"country, state, region,...","countryCode":"TH","lng":100.5,"fcodeName":"first-order administrative division","toponymName":"Changwat Phitsanulok","fcl":"A","numberOfChildren":9,"name":"Changwat Phitsanulok","fcode":"ADM1","geonameId":1607707,"lat":16.9166667,"adminName1":"Phitsanulok","population":971459},{"countryName":"Thailand","adminCode1":"36","fclName":"country, state, region,...","countryCode":"TH","lng":100.5,"fcodeName":"first-order administrative division","toponymName":"Changwat Phra Nakhon Si Ayutthaya","fcl":"A","numberOfChildren":16,"name":"Changwat Phra Nakhon Si Ayutthaya","fcode":"ADM1","geonameId":1607530,"lat":14.2833333,"adminName1":"Phra Nakhon Si Ayutthaya","population":779300},{"countryName":"Thailand","adminCode1":"07","fclName":"country, state, region,...","countryCode":"TH","lng":100,"fcodeName":"first-order administrative division","toponymName":"Changwat Phrae","fcl":"A","numberOfChildren":8,"name":"Changwat Phrae","fcode":"ADM1","geonameId":1607551,"lat":18.0833333,"adminName1":"Phrae","population":492561},{"countryName":"Thailand","adminCode1":"62","fclName":"country, state, region,...","countryCode":"TH","lng":98.25,"fcodeName":"first-order administrative division","toponymName":"Changwat Phuket","fcl":"A","numberOfChildren":2,"name":"Changwat Phuket","fcode":"ADM1","geonameId":1151253,"lat":8,"adminName1":"Phuket","population":319230},{"countryName":"Thailand","adminCode1":"74","fclName":"country, state, region,...","countryCode":"TH","lng":101.6666667,"fcodeName":"first-order administrative division","toponymName":"Changwat Prachin Buri","fcl":"A","numberOfChildren":7,"name":"Changwat Prachin Buri","fcode":"ADM1","geonameId":1906687,"lat":14.0833333,"adminName1":"Prachin Buri","population":406732},{"countryName":"Thailand","adminCode1":"57","fclName":"country, state, region,...","countryCode":"TH","lng":99.75,"fcodeName":"first-order administrative division","toponymName":"Changwat Prachuap Khiri Khan","fcl":"A","numberOfChildren":7,"name":"Changwat Prachuap Khiri Khan","fcode":"ADM1","geonameId":1151073,"lat":12.2166667,"adminName1":"Prachuap Khiri Khan","population":551707},{"countryName":"Thailand","adminCode1":"59","fclName":"country, state, region,...","countryCode":"TH","lng":98.6666667,"fcodeName":"first-order administrative division","toponymName":"Changwat Ranong","fcl":"A","numberOfChildren":5,"name":"Changwat Ranong","fcode":"ADM1","geonameId":1150964,"lat":9.75,"adminName1":"Ranong","population":166292},{"countryName":"Thailand","adminCode1":"52","fclName":"country, state, region,...","countryCode":"TH","lng":99.5333333,"fcodeName":"first-order administrative division","toponymName":"Changwat Ratchaburi","fcl":"A","numberOfChildren":10,"name":"Changwat Ratchaburi","fcode":"ADM1","geonameId":1150953,"lat":13.5833333,"adminName1":"Ratchaburi","population":883648},{"countryName":"Thailand","adminCode1":"47","fclName":"country, state, region,...","countryCode":"TH","lng":101.4333333,"fcodeName":"first-order administrative division","toponymName":"Changwat Rayong","fcl":"A","numberOfChildren":8,"name":"Changwat Rayong","fcode":"ADM1","geonameId":1607016,"lat":12.8333333,"adminName1":"Rayong","population":581051},{"countryName":"Thailand","adminCode1":"25","fclName":"country, state, region,...","countryCode":"TH","lng":103.75,"fcodeName":"first-order administrative division","toponymName":"Changwat Roi Et","fcl":"A","numberOfChildren":19,"name":"Changwat Roi Et","fcode":"ADM1","geonameId":1607000,"lat":15.75,"adminName1":"Roi Et","population":1411066},{"countryName":"Thailand","adminCode1":"80","fclName":"country, state, region,...","countryCode":"TH","lng":102.3333333,"fcodeName":"first-order administrative division","toponymName":"Changwat Sa Kaeo","fcl":"A","numberOfChildren":9,"name":"Changwat Sa Kaeo","fcode":"ADM1","geonameId":1906691,"lat":13.75,"adminName1":"Sa Kaeo","population":625006},{"countryName":"Thailand","adminCode1":"20","fclName":"country, state, region,...","countryCode":"TH","lng":103.8333333,"fcodeName":"first-order administrative division","toponymName":"Changwat Sakon Nakhon","fcl":"A","numberOfChildren":15,"name":"Changwat Sakon Nakhon","fcode":"ADM1","geonameId":1606789,"lat":17.3333333,"adminName1":"Sakon Nakhon","population":1201904},{"countryName":"Thailand","adminCode1":"42","fclName":"country, state, region,...","countryCode":"TH","lng":100.45,"fcodeName":"first-order administrative division","toponymName":"Changwat Samut Prakan","fcl":"A","numberOfChildren":6,"name":"Changwat Samut Prakan","fcode":"ADM1","geonameId":1606589,"lat":13.5,"adminName1":"Samut Prakan","population":1041843},{"countryName":"Thailand","adminCode1":"55","fclName":"country, state, region,...","countryCode":"TH","lng":100.3,"fcodeName":"first-order administrative division","toponymName":"Changwat Samut Sakhon","fcl":"A","numberOfChildren":3,"name":"Changwat Samut Sakhon","fcode":"ADM1","geonameId":1606587,"lat":13.5833333,"adminName1":"Samut Sakhon","population":424336},{"countryName":"Thailand","adminCode1":"54","fclName":"country, state, region,...","countryCode":"TH","lng":99.9583333,"fcodeName":"first-order administrative division","toponymName":"Changwat Samut Songkhram","fcl":"A","numberOfChildren":3,"name":"Changwat Samut Songkhram","fcode":"ADM1","geonameId":1606585,"lat":13.4,"adminName1":"Samut Songkhram","population":204177},{"countryName":"Thailand","adminCode1":"37","fclName":"country, state, region,...","countryCode":"TH","lng":100.968217,"fcodeName":"first-order administrative division","toponymName":"Changwat Sara Buri","fcl":"A","numberOfChildren":13,"name":"Changwat Sara Buri","fcode":"ADM1","geonameId":1606417,"lat":14.608376,"adminName1":"Sara Buri","population":575053},{"countryName":"Thailand","adminCode1":"67","fclName":"country, state, region,...","countryCode":"TH","lng":100,"fcodeName":"first-order administrative division","toponymName":"Changwat Satun","fcl":"A","numberOfChildren":8,"name":"Changwat Satun","fcode":"ADM1","geonameId":1606375,"lat":6.8333333,"adminName1":"Satun","population":303695},{"countryName":"Thailand","adminCode1":"33","fclName":"country, state, region,...","countryCode":"TH","lng":100.2333333,"fcodeName":"first-order administrative division","toponymName":"Changwat Sing Buri","fcl":"A","numberOfChildren":5,"name":"Changwat Sing Buri","fcode":"ADM1","geonameId":1606269,"lat":14.85,"adminName1":"Sing Buri","population":209502},{"countryName":"Thailand","adminCode1":"30","fclName":"country, state, region,...","countryCode":"TH","lng":104.3333333,"fcodeName":"first-order administrative division","toponymName":"Changwat Sisaket","fcl":"A","numberOfChildren":21,"name":"Changwat Sisaket","fcode":"ADM1","geonameId":1606238,"lat":14.8333333,"adminName1":"Sisaket","population":1405500},{"countryName":"Thailand","adminCode1":"68","fclName":"country, state, region,...","countryCode":"TH","lng":100.6666667,"fcodeName":"first-order administrative division","toponymName":"Changwat Songkhla","fcl":"A","numberOfChildren":16,"name":"Changwat Songkhla","fcode":"ADM1","geonameId":1606146,"lat":6.8333333,"adminName1":"Songkhla","population":1292287},{"countryName":"Thailand","adminCode1":"09","fclName":"country, state, region,...","countryCode":"TH","lng":99.6666667,"fcodeName":"first-order administrative division","toponymName":"Changwat Sukhothai","fcl":"A","numberOfChildren":9,"name":"Changwat Sukhothai","fcode":"ADM1","geonameId":1150532,"lat":17.25,"adminName1":"Sukhothai","population":665993},{"countryName":"Thailand","adminCode1":"51","fclName":"country, state, region,...","countryCode":"TH","lng":100.0666667,"fcodeName":"first-order administrative division","toponymName":"Changwat Suphan Buri","fcl":"A","numberOfChildren":10,"name":"Changwat Suphan Buri","fcode":"ADM1","geonameId":1606032,"lat":14.4666667,"adminName1":"Suphan Buri","population":868149},{"countryName":"Thailand","adminCode1":"60","fclName":"country, state, region,...","countryCode":"TH","lng":99.25,"fcodeName":"first-order administrative division","toponymName":"Changwat Surat Thani","fcl":"A","numberOfChildren":18,"name":"Changwat Surat Thani","fcode":"ADM1","geonameId":1150514,"lat":9.1666667,"adminName1":"Surat Thani","population":991524},{"countryName":"Thailand","adminCode1":"29","fclName":"country, state, region,...","countryCode":"TH","lng":103.75,"fcodeName":"first-order administrative division","toponymName":"Changwat Surin","fcl":"A","numberOfChildren":16,"name":"Changwat Surin","fcode":"ADM1","geonameId":1606029,"lat":14.8333333,"adminName1":"Surin","population":1491395},{"countryName":"Thailand","adminCode1":"08","fclName":"country, state, region,...","countryCode":"TH","lng":98.8333333,"fcodeName":"first-order administrative division","toponymName":"Changwat Tak","fcl":"A","numberOfChildren":9,"name":"Changwat Tak","fcode":"ADM1","geonameId":1150489,"lat":16.5833333,"adminName1":"Tak","population":540055},{"countryName":"Thailand","adminCode1":"65","fclName":"country, state, region,...","countryCode":"TH","lng":99.5,"fcodeName":"first-order administrative division","toponymName":"Changwat Trang","fcl":"A","numberOfChildren":8,"name":"Changwat Trang","fcode":"ADM1","geonameId":1150006,"lat":7.5,"adminName1":"Trang","population":612757},{"countryName":"Thailand","adminCode1":"49","fclName":"country, state, region,...","countryCode":"TH","lng":102.5,"fcodeName":"first-order administrative division","toponymName":"Changwat Trat","fcl":"A","numberOfChildren":5,"name":"Changwat Trat","fcode":"ADM1","geonameId":1605277,"lat":12.5,"adminName1":"Trat","population":234294},{"countryName":"Thailand","adminCode1":"75","fclName":"country, state, region,...","countryCode":"TH","lng":105.1666667,"fcodeName":"first-order administrative division","toponymName":"Changwat Ubon Ratchathani","fcl":"A","numberOfChildren":23,"name":"Changwat Ubon Ratchathani","fcode":"ADM1","geonameId":1906688,"lat":15.1666667,"adminName1":"Ubon Ratchathani","population":1691441},{"countryName":"Thailand","adminCode1":"76","fclName":"country, state, region,...","countryCode":"TH","lng":102.8333333,"fcodeName":"first-order administrative division","toponymName":"Changwat Udon Thani","fcl":"A","numberOfChildren":17,"name":"Changwat Udon Thani","fcode":"ADM1","geonameId":1906686,"lat":17.3333333,"adminName1":"Udon Thani","population":1467158},{"countryName":"Thailand","adminCode1":"15","fclName":"country, state, region,...","countryCode":"TH","lng":99.55,"fcodeName":"first-order administrative division","toponymName":"Changwat Uthai Thani","fcl":"A","numberOfChildren":8,"name":"Changwat Uthai Thani","fcode":"ADM1","geonameId":1149965,"lat":15.3833333,"adminName1":"Uthai Thani","population":381376},{"countryName":"Thailand","adminCode1":"10","fclName":"country, state, region,...","countryCode":"TH","lng":100.5,"fcodeName":"first-order administrative division","toponymName":"Changwat Uttaradit","fcl":"A","numberOfChildren":9,"name":"Changwat Uttaradit","fcode":"ADM1","geonameId":1605214,"lat":17.6666667,"adminName1":"Uttaradit","population":511097},{"countryName":"Thailand","adminCode1":"70","fclName":"country, state, region,...","countryCode":"TH","lng":101.25,"fcodeName":"first-order administrative division","toponymName":"Changwat Yala","fcl":"A","numberOfChildren":8,"name":"Changwat Yala","fcode":"ADM1","geonameId":1604869,"lat":6.3333333,"adminName1":"Yala","population":524191},{"countryName":"Thailand","adminCode1":"72","fclName":"country, state, region,...","countryCode":"TH","lng":104.1333333,"fcodeName":"first-order administrative division","toponymName":"Changwat Yasothon","fcl":"A","numberOfChildren":6,"name":"Changwat Yasothon","fcode":"ADM1","geonameId":1604767,"lat":15.75,"adminName1":"Yasothon","population":543848}]}