{"totalResultsCount":17,"geonames":[{"countryName":"Philippines","adminCode1":"14","fclName":"country, state, region,...","countryCode":"PH","lng":124.38720703125,"fcodeName":"first-order administrative division","toponymName":"Autonomous Region in Muslim Mindanao","fcl":"A","numberOfChildren":4,"name":"Autonomous Region in Muslim Mindanao","fcode":"ADM1","geonameId":7115989,"lat":7.0954416047696,"adminName1":"Autonomous Region in Muslim Mindanao","population":4120795},{"countryName":"Philippines","adminCode1":"05","fclName":"country, state, region,...","countryCode":"PH","lng":123.56388888333333,"fcodeName":"first-order administrative division","toponymName":"Bicol","fcl":"A","numberOfChildren":6,"name":"Bicol","fcode":"ADM1","geonameId":7521310,"lat":13.3138889,"adminName1":"Bicol","population":0},{"countryName":"Philippines","adminCode1":"02","fclName":"country, state, region,...","countryCode":"PH","lng":121.73333332,"fcodeName":"first-order administrative division","toponymName":"Cagayan Valley","fcl":"A","numberOfChildren":5,"name":"Cagayan Valley","fcode":"ADM1","geonameId":7521297,"lat":17.656666660000003,"adminName1":"Cagayan Valley","population":0},{"countryName":"Philippines","adminCode1":"40","fclName":"country, state, region,...","countryCode":"PH","lng":121.08999997999999,"fcodeName":"first-order administrative division","toponymName":"Calabarzon","fcl":"A","numberOfChildren":5,"name":"Calabarzon","fcode":"ADM1","geonameId":7521303,"lat":14.310000000000002,"adminName1":"Calabarzon","population":0},{"countryName":"Philippines","adminCode1":"13","fclName":"country, state, region,...","countryCode":"PH","lng":125.74166665,"fcodeName":"first-order administrative division","toponymName":"Caraga","fcl":"A","numberOfChildren":4,"name":"Caraga","fcode":"ADM1","geonameId":7521299,"lat":9.000000025,"adminName1":"Caraga","population":0},{"countryName":"Philippines","adminCode1":"03","fclName":"country, state, region,...","countryCode":"PH","lng":120.79761905714284,"fcodeName":"first-order administrative division","toponymName":"Central Luzon","fcl":"A","numberOfChildren":7,"name":"Central Luzon","fcode":"ADM1","geonameId":7521305,"lat":15.307142857142853,"adminName1":"Central Luzon","population":0},{"countryName":"Philippines","adminCode1":"07","fclName":"country, state, region,...","countryCode":"PH","lng":123.600000025,"fcodeName":"first-order administrative division","toponymName":"Central Visayas","fcl":"A","numberOfChildren":4,"name":"Central Visayas","fcode":"ADM1","geonameId":7521306,"lat":9.524999975,"adminName1":"Central Visayas","population":0},{"countryName":"Philippines","adminCode1":"15","fclName":"country, state, region,...","countryCode":"PH","lng":121.033218403789,"fcodeName":"first-order administrative division","toponymName":"Cordillera Administrative Region","fcl":"A","numberOfChildren":6,"name":"Cordillera Administrative Region","fcode":"ADM1","geonameId":7521300,"lat":17.085198787858097,"adminName1":"Cordillera Administrative Region","population":0},{"countryName":"Philippines","adminCode1":"11","fclName":"country, state, region,...","countryCode":"PH","lng":125.708483325,"fcodeName":"first-order administrative division","toponymName":"Davao","fcl":"A","numberOfChildren":4,"name":"Davao","fcode":"ADM1","geonameId":7521309,"lat":6.81304425,"adminName1":"Davao","population":4156653},{"countryName":"Philippines","adminCode1":"08","fclName":"country, state, region,...","countryCode":"PH","lng":124.98333334000002,"fcodeName":"first-order administrative division","toponymName":"Eastern Visayas","fcl":"A","numberOfChildren":5,"name":"Eastern Visayas","fcode":"ADM1","geonameId":7521307,"lat":11.41666666,"adminName1":"Eastern Visayas","population":0},{"countryName":"Philippines","adminCode1":"01","fclName":"country, state, region,...","countryCode":"PH","lng":120.520833325,"fcodeName":"first-order administrative division","toponymName":"Ilocos","fcl":"A","numberOfChildren":4,"name":"Ilocos","fcode":"ADM1","geonameId":7521301,"lat":16.979166675000002,"adminName1":"Ilocos","population":0},{"countryName":"Philippines","adminCode1":"41","fclName":"country, state, region,...","countryCode":"PH","lng":120.99000000000001,"fcodeName":"first-order administrative division","toponymName":"Mimaropa","fcl":"A","numberOfChildren":5,"name":"Mimaropa","fcode":"ADM1","geonameId":7521296,"lat":12.38333334,"adminName1":"Mimaropa","population":0},{"countryName":"Philippines","adminCode1":"NCR","fclName":"country, state, region,...","countryCode":"PH","lng":120.97174644470215,"fcodeName":"first-order administrative division","toponymName":"National Capital Region","fcl":"A","name":"National Capital Region","fcode":"ADM1","geonameId":7521311,"lat":14.594547807005776,"adminName1":"National Capital Region","population":0},{"countryName":"Philippines","adminCode1":"10","fclName":"country, state, region,...","countryCode":"PH","lng":124.6125,"fcodeName":"first-order administrative division","toponymName":"Northern Mindanao","fcl":"A","numberOfChildren":4,"name":"Northern Mindanao","fcode":"ADM1","geonameId":7521295,"lat":8.5625,"adminName1":"Northern Mindanao","population":0},{"countryName":"Philippines","adminCode1":"12","fclName":"country, state, region,...","countryCode":"PH","lng":124.45555553333332,"fcodeName":"first-order administrative division","toponymName":"Soccsksargen","fcl":"A","numberOfChildren":3,"name":"Soccsksargen","fcode":"ADM1","geonameId":7521298,"lat":7.188888899999999,"adminName1":"Soccsksargen","population":0},{"countryName":"Philippines","adminCode1":"06","fclName":"country, state, region,...","countryCode":"PH","lng":122.53,"fcodeName":"first-order administrative division","toponymName":"Western Visayas","fcl":"A","numberOfChildren":5,"name":"Western Visayas","fcode":"ADM1","geonameId":7521304,"lat":11.13000002,"adminName1":"Western Visayas","population":0},{"countryName":"Philippines","adminCode1":"09","fclName":"country, state, region,...","countryCode":"PH","lng":122.6736629,"fcodeName":"first-order administrative division","toponymName":"Zamboanga Peninsula","fcl":"A","numberOfChildren":3,"name":"Zamboanga Peninsula","fcode":"ADM1","geonameId":7521308,"lat":7.494315,"adminName1":"Zamboanga Peninsula","population":0}]}