{"totalResultsCount":24,"geonames":[{"countryName":"Cambodia","adminCode1":"25","fclName":"country, state, region,...","countryCode":"KH","lng":103,"fcodeName":"first-order administrative division","toponymName":"Khétt Bântéay Méan Cheăy","fcl":"A","name":"Khétt Bântéay Méan Cheăy","fcode":"ADM1","geonameId":1899273,"lat":13.75,"adminName1":"Khétt Bântéay Méan Cheăy","population":0},{"countryName":"Cambodia","adminCode1":"29","fclName":"country, state, region,...","countryCode":"KH","lng":103.08333,"fcodeName":"first-order administrative division","toponymName":"Khétt Bătdâmbâng","fcl":"A","name":"Khétt Bătdâmbâng","fcode":"ADM1","geonameId":1821310,"lat":12.91667,"adminName1":"Khétt Bătdâmbâng","population":0},{"countryName":"Cambodia","adminCode1":"08","fclName":"country, state, region,...","countryCode":"KH","lng":103.5,"fcodeName":"first-order administrative division","toponymName":"Khétt Kaôh Kŏng","fcl":"A","numberOfChildren":1,"name":"Khétt Kaôh Kŏng","fcode":"ADM1","geonameId":1831037,"lat":11.5,"adminName1":"Kaôh Kŏng","population":0},{"countryName":"Cambodia","adminCode1":"09","fclName":"country, state, region,...","countryCode":"KH","lng":106.08333,"fcodeName":"first-order administrative division","toponymName":"Khétt Krâchéh","fcl":"A","name":"Khétt Krâchéh","fcode":"ADM1","geonameId":1830563,"lat":12.66667,"adminName1":"Krâchéh","population":0},{"countryName":"Cambodia","adminCode1":"02","fclName":"country, state, region,...","countryCode":"KH","lng":105.58333,"fcodeName":"first-order administrative division","toponymName":"Khétt Kâmpóng Cham","fcl":"A","name":"Khétt Kâmpóng Cham","fcode":"ADM1","geonameId":1831172,"lat":12.08333,"adminName1":"Kâmpóng Cham","population":0},{"countryName":"Cambodia","adminCode1":"03","fclName":"country, state, region,...","countryCode":"KH","lng":104.5,"fcodeName":"first-order administrative division","toponymName":"Khétt Kâmpóng Chhnăng","fcl":"A","name":"Khétt Kâmpóng Chhnăng","fcode":"ADM1","geonameId":1831166,"lat":12,"adminName1":"Kâmpóng Chhnăng","population":556701},{"countryName":"Cambodia","adminCode1":"04","fclName":"country, state, region,...","countryCode":"KH","lng":104.5,"fcodeName":"first-order administrative division","toponymName":"Khétt Kâmpóng Spœ","fcl":"A","name":"Khétt Kâmpóng Spœ","fcode":"ADM1","geonameId":1831132,"lat":11.5,"adminName1":"Khétt Kâmpóng Spœ","population":777582},{"countryName":"Cambodia","adminCode1":"05","fclName":"country, state, region,...","countryCode":"KH","lng":105,"fcodeName":"first-order administrative division","toponymName":"Khétt Kâmpóng Thum","fcl":"A","name":"Khétt Kâmpóng Thum","fcode":"ADM1","geonameId":1831124,"lat":12.83333,"adminName1":"Kâmpóng Thum","population":0},{"countryName":"Cambodia","adminCode1":"21","fclName":"country, state, region,...","countryCode":"KH","lng":104.33333,"fcodeName":"first-order administrative division","toponymName":"Khétt Kâmpôt","fcl":"A","name":"Khétt Kâmpôt","fcode":"ADM1","geonameId":1831111,"lat":10.83333,"adminName1":"Khétt Kâmpôt","population":0},{"countryName":"Cambodia","adminCode1":"07","fclName":"country, state, region,...","countryCode":"KH","lng":105,"fcodeName":"first-order administrative division","toponymName":"Khétt Kândal","fcl":"A","name":"Khétt Kândal","fcode":"ADM1","geonameId":1831095,"lat":11.41667,"adminName1":"Kândal","population":0},{"countryName":"Cambodia","adminCode1":"26","fclName":"country, state, region,...","countryCode":"KH","lng":104.31667,"fcodeName":"first-order administrative division","toponymName":"Khétt Kêb","fcl":"A","name":"Khétt Kêb","fcode":"ADM1","geonameId":1830937,"lat":10.5125,"adminName1":"Khétt Kêb","population":0},{"countryName":"Cambodia","adminCode1":"10","fclName":"country, state, region,...","countryCode":"KH","lng":107,"fcodeName":"first-order administrative division","toponymName":"Khétt Môndôl Kiri","fcl":"A","name":"Khétt Môndôl Kiri","fcode":"ADM1","geonameId":1830306,"lat":12.75,"adminName1":"Môndól Kiri","population":0},{"countryName":"Cambodia","adminCode1":"30","fclName":"country, state, region,...","countryCode":"KH","lng":102.6,"fcodeName":"first-order administrative division","toponymName":"Khétt Pailĭn","fcl":"A","name":"Khétt Pailĭn","fcode":"ADM1","geonameId":1830206,"lat":12.86667,"adminName1":"Khétt Pailĭn","population":0},{"countryName":"Cambodia","adminCode1":"12","fclName":"country, state, region,...","countryCode":"KH","lng":104,"fcodeName":"first-order administrative division","toponymName":"Khétt Poŭthĭsăt","fcl":"A","name":"Khétt Poŭthĭsăt","fcode":"ADM1","geonameId":1821301,"lat":12.5,"adminName1":"Poŭthĭsăt","population":495776},{"countryName":"Cambodia","adminCode1":"14","fclName":"country, state, region,...","countryCode":"KH","lng":105.46667,"fcodeName":"first-order administrative division","toponymName":"Khétt Prey Vêng","fcl":"A","name":"Khétt Prey Vêng","fcode":"ADM1","geonameId":1822609,"lat":11.36667,"adminName1":"Prey Vêng","population":0},{"countryName":"Cambodia","adminCode1":"13","fclName":"country, state, region,...","countryCode":"KH","lng":104.8333333,"fcodeName":"first-order administrative division","toponymName":"Khétt Preăh Vĭhéar","fcl":"A","name":"Khétt Preăh Vĭhéar","fcode":"ADM1","geonameId":1822676,"lat":14,"adminName1":"Preăh Vihéar","population":153124},{"countryName":"Cambodia","adminCode1":"23","fclName":"country, state, region,...","countryCode":"KH","lng":107,"fcodeName":"first-order administrative division","toponymName":"Khétt Rôtânăh Kiri","fcl":"A","name":"Khétt Rôtânăh Kiri","fcode":"ADM1","geonameId":1822449,"lat":13.8333333,"adminName1":"Khétt Rôtânăh Kiri","population":130526},{"countryName":"Cambodia","adminCode1":"24","fclName":"country, state, region,...","countryCode":"KH","lng":104,"fcodeName":"first-order administrative division","toponymName":"Khétt Siĕm Réab","fcl":"A","name":"Khétt Siĕm Réab","fcode":"ADM1","geonameId":1822213,"lat":13.75,"adminName1":"Khétt Siĕm Réab","population":843191},{"countryName":"Cambodia","adminCode1":"17","fclName":"country, state, region,...","countryCode":"KH","lng":106.25,"fcodeName":"first-order administrative division","toponymName":"Khétt Stœ̆ng Trêng","fcl":"A","name":"Khétt Stœ̆ng Trêng","fcode":"ADM1","geonameId":1822028,"lat":13.75,"adminName1":"Stœ̆ng Trêng","population":0},{"countryName":"Cambodia","adminCode1":"18","fclName":"country, state, region,...","countryCode":"KH","lng":105.833333,"fcodeName":"first-order administrative division","toponymName":"Khétt Svay Riĕng","fcl":"A","name":"Khétt Svay Riĕng","fcode":"ADM1","geonameId":1821992,"lat":11.16667,"adminName1":"Svay Riĕng","population":0},{"countryName":"Cambodia","adminCode1":"19","fclName":"country, state, region,...","countryCode":"KH","lng":104.8333333,"fcodeName":"first-order administrative division","toponymName":"Khétt Takêv","fcl":"A","name":"Khétt Takêv","fcode":"ADM1","geonameId":1821939,"lat":11,"adminName1":"Takêv","population":963747},{"countryName":"Cambodia","adminCode1":"27","fclName":"country, state, region,...","countryCode":"KH","lng":103.91796112060547,"fcodeName":"first-order administrative division","toponymName":"Khêt Siĕmréab-Ŏtâr Méanchey","fcl":"A","name":"Khêt Siĕmréab-Ŏtâr Méanchey","fcode":"ADM1","geonameId":1822210,"lat":14.323768948471024,"adminName1":"Khêt Siĕmréab-Ŏtâr Méanchey","population":0},{"countryName":"Cambodia","adminCode1":"22","fclName":"country, state, region,...","countryCode":"KH","lng":104.86667,"fcodeName":"first-order administrative division","toponymName":"Krŏng Phnum Pénh","fcl":"A","name":"Krŏng Phnum Pénh","fcode":"ADM1","geonameId":1830103,"lat":11.55,"adminName1":"Krŏng Phnum Pénh","population":0},{"countryName":"Cambodia","adminCode1":"28","fclName":"country, state, region,...","countryCode":"KH","lng":103.75,"fcodeName":"first-order administrative division","toponymName":"Krŏng Preăh Seihânŭ","fcl":"A","name":"Krŏng Preăh Seihânŭ","fcode":"ADM1","geonameId":1899262,"lat":10.6166667,"adminName1":"Krŏng Preăh Seihânŭ","population":243967}]}