{"totalResultsCount":16,"geonames":[{"countryName":"South Korea","adminCode1":"10","fclName":"country, state, region,...","countryCode":"KR","lng":129.05,"fcodeName":"first-order administrative division","toponymName":"Pusan-gwangyŏksi","fcl":"A","name":"Busan","fcode":"ADM1","geonameId":1838519,"lat":35.1333333,"adminName1":"Busan","population":0},{"countryName":"South Korea","adminCode1":"15","fclName":"country, state, region,...","countryCode":"KR","lng":128.55,"fcodeName":"first-order administrative division","toponymName":"Taegu-gwangyŏksi","fcl":"A","name":"Daegu","fcode":"ADM1","geonameId":1835327,"lat":35.8,"adminName1":"Daegu","population":2566540},{"countryName":"South Korea","adminCode1":"19","fclName":"country, state, region,...","countryCode":"KR","lng":127.4166667,"fcodeName":"first-order administrative division","toponymName":"Taejŏn-gwangyŏksi","fcl":"A","name":"Daejeon","fcode":"ADM1","geonameId":1835224,"lat":36.3333333,"adminName1":"Daejeon","population":1475221},{"countryName":"South Korea","adminCode1":"06","fclName":"country, state, region,...","countryCode":"KR","lng":128.25,"fcodeName":"first-order administrative division","toponymName":"Kangwŏn-do","fcl":"A","numberOfChildren":7,"name":"Gangwon","fcode":"ADM1","geonameId":1843125,"lat":37.75,"adminName1":"Gangwon","population":0},{"countryName":"South Korea","adminCode1":"18","fclName":"country, state, region,...","countryCode":"KR","lng":126.9166667,"fcodeName":"first-order administrative division","toponymName":"Kwangju-gwangyŏksi","fcl":"A","name":"Gwangju","fcode":"ADM1","geonameId":1841808,"lat":35.1666667,"adminName1":"Gwangju","population":0},{"countryName":"South Korea","adminCode1":"13","fclName":"country, state, region,...","countryCode":"KR","lng":127.25,"fcodeName":"first-order administrative division","toponymName":"Kyŏnggi-do","fcl":"A","numberOfChildren":4,"name":"Gyeonggi","fcode":"ADM1","geonameId":1841610,"lat":37.6,"adminName1":"Gyeonggi","population":0},{"countryName":"South Korea","adminCode1":"12","fclName":"country, state, region,...","countryCode":"KR","lng":126.4161111,"fcodeName":"first-order administrative division","toponymName":"Inch'ŏn-gwangyŏksi","fcl":"A","name":"Incheon","fcode":"ADM1","geonameId":1843561,"lat":37.45,"adminName1":"Incheon","population":2654793},{"countryName":"South Korea","adminCode1":"01","fclName":"country, state, region,...","countryCode":"KR","lng":126.5,"fcodeName":"first-order administrative division","toponymName":"Cheju-do","fcl":"A","numberOfChildren":4,"name":"Jeju","fcode":"ADM1","geonameId":1846265,"lat":33.4166667,"adminName1":"Jeju","population":0},{"countryName":"South Korea","adminCode1":"05","fclName":"country, state, region,...","countryCode":"KR","lng":128,"fcodeName":"first-order administrative division","toponymName":"Ch'ungch'ŏng-bukto","fcl":"A","numberOfChildren":5,"name":"North Chungcheong","fcode":"ADM1","geonameId":1845106,"lat":36.75,"adminName1":"North Chungcheong","population":0},{"countryName":"South Korea","adminCode1":"14","fclName":"country, state, region,...","countryCode":"KR","lng":128.75,"fcodeName":"first-order administrative division","toponymName":"Kyŏngsang-bukto","fcl":"A","numberOfChildren":4,"name":"North Gyeongsang","fcode":"ADM1","geonameId":1841597,"lat":36.3333333,"adminName1":"North Gyeongsang","population":2708787},{"countryName":"South Korea","adminCode1":"03","fclName":"country, state, region,...","countryCode":"KR","lng":127.25,"fcodeName":"first-order administrative division","toponymName":"Chŏlla-bukto","fcl":"A","name":"North Jeolla","fcode":"ADM1","geonameId":1845789,"lat":35.75,"adminName1":"North Jeolla","population":0},{"countryName":"South Korea","adminCode1":"11","fclName":"country, state, region,...","countryCode":"KR","lng":127,"fcodeName":"first-order administrative division","toponymName":"Sŏul-t'ŭkpyŏlsi","fcl":"A","name":"Seoul","fcode":"ADM1","geonameId":1835847,"lat":37.5833333,"adminName1":"Seoul","population":10349312},{"countryName":"South Korea","adminCode1":"17","fclName":"country, state, region,...","countryCode":"KR","lng":127,"fcodeName":"first-order administrative division","toponymName":"Ch'ungch'ŏng-namdo","fcl":"A","numberOfChildren":2,"name":"South Chungcheong","fcode":"ADM1","geonameId":1845105,"lat":36.5,"adminName1":"South Chungcheong","population":0},{"countryName":"South Korea","adminCode1":"20","fclName":"country, state, region,...","countryCode":"KR","lng":128.25,"fcodeName":"first-order administrative division","toponymName":"Kyŏngsang-namdo","fcl":"A","numberOfChildren":2,"name":"South Gyeongsang","fcode":"ADM1","geonameId":1902028,"lat":35.25,"adminName1":"South Gyeongsang","population":0},{"countryName":"South Korea","adminCode1":"16","fclName":"country, state, region,...","countryCode":"KR","lng":127,"fcodeName":"first-order administrative division","toponymName":"Chŏlla-namdo","fcl":"A","numberOfChildren":6,"name":"South Jeolla","fcode":"ADM1","geonameId":1845788,"lat":34.75,"adminName1":"South Jeolla","population":0},{"countryName":"South Korea","adminCode1":"21","fclName":"country, state, region,...","countryCode":"KR","lng":129.2666667,"fcodeName":"first-order administrative division","toponymName":"Ulsan-gwangyŏksi","fcl":"A","name":"Ulsan","fcode":"ADM1","geonameId":1833742,"lat":35.5666667,"adminName1":"Ulsan","population":0}]}