{"totalResultsCount":80,"geonames":[{"countryName":"Uganda","adminCode1":"B6","fclName":"country, state, region,...","countryCode":"UG","lng":33.75,"fcodeName":"first-order administrative division","toponymName":"Abim District","fcl":"A","numberOfChildren":8,"name":"Abim District","fcode":"ADM1","geonameId":7056273,"lat":2.75,"adminName1":"Abim","population":0},{"countryName":"Uganda","adminCode1":"65","fclName":"country, state, region,...","countryCode":"UG","lng":31.75,"fcodeName":"first-order administrative division","toponymName":"Adjumani District","fcl":"A","name":"Adjumani District","fcode":"ADM1","geonameId":443782,"lat":3.5,"adminName1":"Adjumani","population":0},{"countryName":"Uganda","adminCode1":"B7","fclName":"country, state, region,...","countryCode":"UG","lng":32.75,"fcodeName":"first-order administrative division","toponymName":"Amolatar District","fcl":"A","numberOfChildren":8,"name":"Amolatar District","fcode":"ADM1","geonameId":7056275,"lat":1.583333,"adminName1":"Amolatar","population":0},{"countryName":"Uganda","adminCode1":"B8","fclName":"country, state, region,...","countryCode":"UG","lng":33.666667,"fcodeName":"first-order administrative division","toponymName":"Amuria District","fcl":"A","numberOfChildren":8,"name":"Amuria District","fcode":"ADM1","geonameId":7056276,"lat":2.083333,"adminName1":"Amuria","population":0},{"countryName":"Uganda","adminCode1":"B9","fclName":"country, state, region,...","countryCode":"UG","lng":31.95,"fcodeName":"first-order administrative division","toponymName":"Amuru District","fcl":"A","numberOfChildren":8,"name":"Amuru District","fcode":"ADM1","geonameId":7056278,"lat":2.733333,"adminName1":"Amuru","population":0},{"countryName":"Uganda","adminCode1":"26","fclName":"country, state, region,...","countryCode":"UG","lng":32.5833333,"fcodeName":"first-order administrative division","toponymName":"Apac District","fcl":"A","name":"Apac District","fcode":"ADM1","geonameId":443327,"lat":2.0833333,"adminName1":"Apac","population":0},{"countryName":"Uganda","adminCode1":"77","fclName":"country, state, region,...","countryCode":"UG","lng":31.1666667,"fcodeName":"first-order administrative division","toponymName":"Arua District","fcl":"A","name":"Arua District","fcode":"ADM1","geonameId":443328,"lat":3,"adminName1":"Arua","population":0},{"countryName":"Uganda","adminCode1":"C1","fclName":"country, state, region,...","countryCode":"UG","lng":34.0125,"fcodeName":"first-order administrative division","toponymName":"Budaka District","fcl":"A","numberOfChildren":8,"name":"Budaka District","fcode":"ADM1","geonameId":7056279,"lat":1.084167,"adminName1":"Budaka","population":0},{"countryName":"Uganda","adminCode1":"C2","fclName":"country, state, region,...","countryCode":"UG","lng":34.383333,"fcodeName":"first-order administrative division","toponymName":"Bududa District","fcl":"A","numberOfChildren":8,"name":"Bududa District","fcode":"ADM1","geonameId":7056280,"lat":1.033333,"adminName1":"Bududa","population":0},{"countryName":"Uganda","adminCode1":"66","fclName":"country, state, region,...","countryCode":"UG","lng":33.75,"fcodeName":"first-order administrative division","toponymName":"Bugiri District","fcl":"A","name":"Bugiri District","fcode":"ADM1","geonameId":443783,"lat":-0.25,"adminName1":"Bugiri","population":0},{"countryName":"Uganda","adminCode1":"C3","fclName":"country, state, region,...","countryCode":"UG","lng":34.083333,"fcodeName":"first-order administrative division","toponymName":"Bukedea District","fcl":"A","numberOfChildren":8,"name":"Bukedea","fcode":"ADM1","geonameId":234411,"lat":1.416667,"adminName1":"Bukedea","population":0},{"countryName":"Uganda","adminCode1":"C4","fclName":"country, state, region,...","countryCode":"UG","lng":34.7,"fcodeName":"first-order administrative division","toponymName":"Bukwa District","fcl":"A","numberOfChildren":8,"name":"Bukwa District","fcode":"ADM1","geonameId":7056296,"lat":1.3,"adminName1":"Bukwa","population":0},{"countryName":"Uganda","adminCode1":"C5","fclName":"country, state, region,...","countryCode":"UG","lng":31.5,"fcodeName":"first-order administrative division","toponymName":"Bulisa District","fcl":"A","numberOfChildren":8,"name":"Bulisa District","fcode":"ADM1","geonameId":7056281,"lat":2,"adminName1":"Bulisa","population":0},{"countryName":"Uganda","adminCode1":"28","fclName":"country, state, region,...","countryCode":"UG","lng":30.25,"fcodeName":"first-order administrative division","toponymName":"Bundibugyo District","fcl":"A","name":"Bundibugyo District","fcode":"ADM1","geonameId":443329,"lat":0.8333333,"adminName1":"Bundibugyo","population":0},{"countryName":"Uganda","adminCode1":"29","fclName":"country, state, region,...","countryCode":"UG","lng":30.1666667,"fcodeName":"first-order administrative division","toponymName":"Bushenyi District","fcl":"A","name":"Bushenyi District","fcode":"ADM1","geonameId":443330,"lat":-0.4166667,"adminName1":"Bushenyi","population":0},{"countryName":"Uganda","adminCode1":"67","fclName":"country, state, region,...","countryCode":"UG","lng":34,"fcodeName":"first-order administrative division","toponymName":"Busia District","fcl":"A","name":"Busia District","fcode":"ADM1","geonameId":443784,"lat":0.5,"adminName1":"Busia","population":0},{"countryName":"Uganda","adminCode1":"C6","fclName":"country, state, region,...","countryCode":"UG","lng":33.906667,"fcodeName":"first-order administrative division","toponymName":"Butaleja District","fcl":"A","numberOfChildren":8,"name":"Butaleja District","fcode":"ADM1","geonameId":7056282,"lat":0.873333,"adminName1":"Butaleja","population":0},{"countryName":"Uganda","adminCode1":"C7","fclName":"country, state, region,...","countryCode":"UG","lng":33.05,"fcodeName":"first-order administrative division","toponymName":"Dokolo District","fcl":"A","numberOfChildren":8,"name":"Dokolo District","fcode":"ADM1","geonameId":7056283,"lat":1.933333,"adminName1":"Dokolo","population":0},{"countryName":"Uganda","adminCode1":"30","fclName":"country, state, region,...","countryCode":"UG","lng":32,"fcodeName":"first-order administrative division","toponymName":"Gulu District","fcl":"A","name":"Gulu District","fcode":"ADM1","geonameId":443331,"lat":2.75,"adminName1":"Gulu","population":0},{"countryName":"Uganda","adminCode1":"31","fclName":"country, state, region,...","countryCode":"UG","lng":31.0833333,"fcodeName":"first-order administrative division","toponymName":"Hoima District","fcl":"A","name":"Hoima District","fcode":"ADM1","geonameId":443332,"lat":1.4166667,"adminName1":"Hoima","population":0},{"countryName":"Uganda","adminCode1":"C8","fclName":"country, state, region,...","countryCode":"UG","lng":30.498611,"fcodeName":"first-order administrative division","toponymName":"Ibanda District","fcl":"A","numberOfChildren":8,"name":"Ibanda District","fcode":"ADM1","geonameId":7056284,"lat":0.02,"adminName1":"Ibanda","population":0},{"countryName":"Uganda","adminCode1":"78","fclName":"country, state, region,...","countryCode":"UG","lng":33.5833333,"fcodeName":"first-order administrative division","toponymName":"Iganga District","fcl":"A","name":"Iganga District","fcode":"ADM1","geonameId":443334,"lat":0.75,"adminName1":"Iganga","population":0},{"countryName":"Uganda","adminCode1":"C9","fclName":"country, state, region,...","countryCode":"UG","lng":30.933333,"fcodeName":"first-order administrative division","toponymName":"Isingiro District","fcl":"A","numberOfChildren":8,"name":"Isingiro District","fcode":"ADM1","geonameId":7056285,"lat":0.833333,"adminName1":"Isingiro","population":0},{"countryName":"Uganda","adminCode1":"33","fclName":"country, state, region,...","countryCode":"UG","lng":33.25,"fcodeName":"first-order administrative division","toponymName":"Jinja District","fcl":"A","name":"Jinja District","fcode":"ADM1","geonameId":443335,"lat":0.5833333,"adminName1":"Jinja","population":0},{"countryName":"Uganda","adminCode1":"D1","fclName":"country, state, region,...","countryCode":"UG","lng":34,"fcodeName":"first-order administrative division","toponymName":"Kaabong District","fcl":"A","numberOfChildren":8,"name":"Kaabong District","fcode":"ADM1","geonameId":7056286,"lat":3.583333,"adminName1":"Kaabong","population":0},{"countryName":"Uganda","adminCode1":"34","fclName":"country, state, region,...","countryCode":"UG","lng":30,"fcodeName":"first-order administrative division","toponymName":"Kabale District","fcl":"A","name":"Kabale District","fcode":"ADM1","geonameId":443336,"lat":-1.25,"adminName1":"Kabale","population":0},{"countryName":"Uganda","adminCode1":"79","fclName":"country, state, region,...","countryCode":"UG","lng":30.25,"fcodeName":"first-order administrative division","toponymName":"Kabarole District","fcl":"A","name":"Kabarole District","fcode":"ADM1","geonameId":443337,"lat":0.5833333,"adminName1":"Kabarole","population":0},{"countryName":"Uganda","adminCode1":"80","fclName":"country, state, region,...","countryCode":"UG","lng":33.1666667,"fcodeName":"first-order administrative division","toponymName":"Kaberamaido District","fcl":"A","name":"Kaberamaido District","fcode":"ADM1","geonameId":448215,"lat":1.8333333,"adminName1":"Kaberamaido","population":0},{"countryName":"Uganda","adminCode1":"36","fclName":"country, state, region,...","countryCode":"UG","lng":32.3333333,"fcodeName":"first-order administrative division","toponymName":"Kalangala District","fcl":"A","name":"Kalangala District","fcode":"ADM1","geonameId":443338,"lat":-0.4166667,"adminName1":"Kalangala","population":0},{"countryName":"Uganda","adminCode1":"D2","fclName":"country, state, region,...","countryCode":"UG","lng":33.483333,"fcodeName":"first-order administrative division","toponymName":"Kaliro District","fcl":"A","numberOfChildren":8,"name":"Kaliro District","fcode":"ADM1","geonameId":7056287,"lat":1.083333,"adminName1":"Kaliro","population":0},{"countryName":"Uganda","adminCode1":"37","fclName":"country, state, region,...","countryCode":"UG","lng":32.5831317901611,"fcodeName":"first-order administrative division","toponymName":"Kampala District","fcl":"A","name":"Kampala District","fcode":"ADM1","geonameId":443339,"lat":0.335081097708619,"adminName1":"Kampala","population":0},{"countryName":"Uganda","adminCode1":"38","fclName":"country, state, region,...","countryCode":"UG","lng":33.25,"fcodeName":"first-order administrative division","toponymName":"Kamuli District","fcl":"A","name":"Kamuli District","fcode":"ADM1","geonameId":443340,"lat":1.0833333,"adminName1":"Kamuli","population":0},{"countryName":"Uganda","adminCode1":"81","fclName":"country, state, region,...","countryCode":"UG","lng":30.4166667,"fcodeName":"first-order administrative division","toponymName":"Kamwenge District","fcl":"A","name":"Kamwenge District","fcode":"ADM1","geonameId":448216,"lat":0.1666667,"adminName1":"Kamwenge","population":0},{"countryName":"Uganda","adminCode1":"82","fclName":"country, state, region,...","countryCode":"UG","lng":29.7,"fcodeName":"first-order administrative division","toponymName":"Kanungu District","fcl":"A","name":"Kanungu District","fcode":"ADM1","geonameId":448217,"lat":-0.75,"adminName1":"Kanungu","population":0},{"countryName":"Uganda","adminCode1":"39","fclName":"country, state, region,...","countryCode":"UG","lng":34.5833333,"fcodeName":"first-order administrative division","toponymName":"Kapchorwa District","fcl":"A","name":"Kapchorwa District","fcode":"ADM1","geonameId":443341,"lat":1.3333333,"adminName1":"Kapchorwa","population":0},{"countryName":"Uganda","adminCode1":"40","fclName":"country, state, region,...","countryCode":"UG","lng":30,"fcodeName":"first-order administrative division","toponymName":"Kasese District","fcl":"A","name":"Kasese District","fcode":"ADM1","geonameId":443342,"lat":0.1666667,"adminName1":"Kasese","population":0},{"countryName":"Uganda","adminCode1":"69","fclName":"country, state, region,...","countryCode":"UG","lng":33.75,"fcodeName":"first-order administrative division","toponymName":"Katakwi District","fcl":"A","name":"Katakwi District","fcode":"ADM1","geonameId":443785,"lat":2,"adminName1":"Katakwi","population":0},{"countryName":"Uganda","adminCode1":"83","fclName":"country, state, region,...","countryCode":"UG","lng":32.8666667,"fcodeName":"first-order administrative division","toponymName":"Kayunga District","fcl":"A","name":"Kayunga District","fcode":"ADM1","geonameId":448218,"lat":1,"adminName1":"Kayunga","population":0},{"countryName":"Uganda","adminCode1":"41","fclName":"country, state, region,...","countryCode":"UG","lng":31.1666667,"fcodeName":"first-order administrative division","toponymName":"Kibale District","fcl":"A","name":"Kibale District","fcode":"ADM1","geonameId":443343,"lat":0.9166667,"adminName1":"Kibale","population":0},{"countryName":"Uganda","adminCode1":"42","fclName":"country, state, region,...","countryCode":"UG","lng":31.75,"fcodeName":"first-order administrative division","toponymName":"Kiboga District","fcl":"A","name":"Kiboga District","fcode":"ADM1","geonameId":443344,"lat":1,"adminName1":"Kiboga","population":0},{"countryName":"Uganda","adminCode1":"D3","fclName":"country, state, region,...","countryCode":"UG","lng":30.9,"fcodeName":"first-order administrative division","toponymName":"Kiruhura District","fcl":"A","numberOfChildren":8,"name":"Kiruhura District","fcode":"ADM1","geonameId":7056288,"lat":0.25,"adminName1":"Kiruhura","population":0},{"countryName":"Uganda","adminCode1":"43","fclName":"country, state, region,...","countryCode":"UG","lng":29.6666667,"fcodeName":"first-order administrative division","toponymName":"Kisoro District","fcl":"A","name":"Kisoro District","fcode":"ADM1","geonameId":443345,"lat":-1.1666667,"adminName1":"Kisoro","population":0},{"countryName":"Uganda","adminCode1":"84","fclName":"country, state, region,...","countryCode":"UG","lng":33,"fcodeName":"first-order administrative division","toponymName":"Kitgum District","fcl":"A","name":"Kitgum District","fcode":"ADM1","geonameId":443346,"lat":3.5,"adminName1":"Kitgum","population":0},{"countryName":"Uganda","adminCode1":"D4","fclName":"country, state, region,...","countryCode":"UG","lng":31,"fcodeName":"first-order administrative division","toponymName":"Koboko District","fcl":"A","numberOfChildren":8,"name":"Koboko District","fcode":"ADM1","geonameId":7056289,"lat":3.5,"adminName1":"Koboko","population":0},{"countryName":"Uganda","adminCode1":"45","fclName":"country, state, region,...","countryCode":"UG","lng":34,"fcodeName":"first-order administrative division","toponymName":"Kotido District","fcl":"A","name":"Kotido District","fcode":"ADM1","geonameId":443347,"lat":3.3333333,"adminName1":"Kotido","population":0},{"countryName":"Uganda","adminCode1":"46","fclName":"country, state, region,...","countryCode":"UG","lng":34,"fcodeName":"first-order administrative division","toponymName":"Kumi District","fcl":"A","name":"Kumi District","fcode":"ADM1","geonameId":443348,"lat":1.4166667,"adminName1":"Kumi","population":0},{"countryName":"Uganda","adminCode1":"85","fclName":"country, state, region,...","countryCode":"UG","lng":30.8333333,"fcodeName":"first-order administrative division","toponymName":"Kyenjojo District","fcl":"A","name":"Kyenjojo District","fcode":"ADM1","geonameId":448219,"lat":0.5,"adminName1":"Kyenjojo","population":0},{"countryName":"Uganda","adminCode1":"47","fclName":"country, state, region,...","countryCode":"UG","lng":33.1666667,"fcodeName":"first-order administrative division","toponymName":"Lira District","fcl":"A","name":"Lira District","fcode":"ADM1","geonameId":443349,"lat":2.0833333,"adminName1":"Lira","population":0},{"countryName":"Uganda","adminCode1":"70","fclName":"country, state, region,...","countryCode":"UG","lng":32.3333333,"fcodeName":"first-order administrative division","toponymName":"Luwero District","fcl":"A","name":"Luwero District","fcode":"ADM1","geonameId":443350,"lat":1,"adminName1":"Luwero","population":0},{"countryName":"Uganda","adminCode1":"D5","fclName":"country, state, region,...","countryCode":"UG","lng":31.166667,"fcodeName":"first-order administrative division","toponymName":"Lyantonde District","fcl":"A","numberOfChildren":8,"name":"Lyantonde District","fcode":"ADM1","geonameId":7056290,"lat":0.2,"adminName1":"Lyantonde","population":0},{"countryName":"Uganda","adminCode1":"D6","fclName":"country, state, region,...","countryCode":"UG","lng":34.333333,"fcodeName":"first-order administrative division","toponymName":"Manafwa District","fcl":"A","numberOfChildren":8,"name":"Manafwa District","fcode":"ADM1","geonameId":7056291,"lat":0.883333,"adminName1":"Manafwa","population":0},{"countryName":"Uganda","adminCode1":"D7","fclName":"country, state, region,...","countryCode":"UG","lng":31.083333,"fcodeName":"first-order administrative division","toponymName":"Maracha District","fcl":"A","numberOfChildren":8,"name":"Maracha District","fcode":"ADM1","geonameId":7056292,"lat":3.183333,"adminName1":"Maracha","population":0},{"countryName":"Uganda","adminCode1":"71","fclName":"country, state, region,...","countryCode":"UG","lng":31.75,"fcodeName":"first-order administrative division","toponymName":"Masaka District","fcl":"A","name":"Masaka District","fcode":"ADM1","geonameId":226230,"lat":-0.5,"adminName1":"Masaka","population":0},{"countryName":"Uganda","adminCode1":"50","fclName":"country, state, region,...","countryCode":"UG","lng":31.8333333,"fcodeName":"first-order administrative division","toponymName":"Masindi District","fcl":"A","name":"Masindi District","fcode":"ADM1","geonameId":443351,"lat":1.8333333,"adminName1":"Masindi","population":0},{"countryName":"Uganda","adminCode1":"86","fclName":"country, state, region,...","countryCode":"UG","lng":33.5,"fcodeName":"first-order administrative division","toponymName":"Mayuge District","fcl":"A","name":"Mayuge District","fcode":"ADM1","geonameId":448220,"lat":0.3333333,"adminName1":"Mayuge","population":0},{"countryName":"Uganda","adminCode1":"87","fclName":"country, state, region,...","countryCode":"UG","lng":34.3333333,"fcodeName":"first-order administrative division","toponymName":"Mbale District","fcl":"A","name":"Mbale District","fcode":"ADM1","geonameId":443353,"lat":0.95,"adminName1":"Mbale","population":0},{"countryName":"Uganda","adminCode1":"52","fclName":"country, state, region,...","countryCode":"UG","lng":30.75,"fcodeName":"first-order administrative division","toponymName":"Mbarara District","fcl":"A","name":"Mbarara District","fcode":"ADM1","geonameId":443355,"lat":-0.4166667,"adminName1":"Mbarara","population":0},{"countryName":"Uganda","adminCode1":"D8","fclName":"country, state, region,...","countryCode":"UG","lng":32.083333,"fcodeName":"first-order administrative division","toponymName":"Mityana District","fcl":"A","numberOfChildren":8,"name":"Mityana District","fcode":"ADM1","geonameId":7056293,"lat":0.416667,"adminName1":"Mityana","population":0},{"countryName":"Uganda","adminCode1":"88","fclName":"country, state, region,...","countryCode":"UG","lng":34.25,"fcodeName":"first-order administrative division","toponymName":"Moroto District","fcl":"A","name":"Moroto District","fcode":"ADM1","geonameId":443356,"lat":2.5,"adminName1":"Moroto","population":0},{"countryName":"Uganda","adminCode1":"72","fclName":"country, state, region,...","countryCode":"UG","lng":31.75,"fcodeName":"first-order administrative division","toponymName":"Moyo District","fcl":"A","name":"Moyo District","fcode":"ADM1","geonameId":443357,"lat":3.25,"adminName1":"Moyo","population":0},{"countryName":"Uganda","adminCode1":"89","fclName":"country, state, region,...","countryCode":"UG","lng":32,"fcodeName":"first-order administrative division","toponymName":"Mpigi District","fcl":"A","name":"Mpigi District","fcode":"ADM1","geonameId":233709,"lat":0.0833333,"adminName1":"Mpigi","population":0},{"countryName":"Uganda","adminCode1":"56","fclName":"country, state, region,...","countryCode":"UG","lng":31.6666667,"fcodeName":"first-order administrative division","toponymName":"Mubende District","fcl":"A","name":"Mubende District","fcode":"ADM1","geonameId":443358,"lat":0.5,"adminName1":"Mubende","population":660000},{"countryName":"Uganda","adminCode1":"90","fclName":"country, state, region,...","countryCode":"UG","lng":32.9166667,"fcodeName":"first-order administrative division","toponymName":"Mukono District","fcl":"A","name":"Mukono District","fcode":"ADM1","geonameId":443359,"lat":0.25,"adminName1":"Mukono","population":0},{"countryName":"Uganda","adminCode1":"91","fclName":"country, state, region,...","countryCode":"UG","lng":34.6666667,"fcodeName":"first-order administrative division","toponymName":"Nakapiripirit District","fcl":"A","name":"Nakapiripirit District","fcode":"ADM1","geonameId":448221,"lat":1.9166667,"adminName1":"Nakapiripirit","population":0},{"countryName":"Uganda","adminCode1":"D9","fclName":"country, state, region,...","countryCode":"UG","lng":32.25,"fcodeName":"first-order administrative division","toponymName":"Nakaseke District","fcl":"A","numberOfChildren":8,"name":"Nakaseke District","fcode":"ADM1","geonameId":7056294,"lat":1,"adminName1":"Nakaseke","population":0},{"countryName":"Uganda","adminCode1":"73","fclName":"country, state, region,...","countryCode":"UG","lng":32.5,"fcodeName":"first-order administrative division","toponymName":"Nakasongola District","fcl":"A","name":"Nakasongola District","fcode":"ADM1","geonameId":443786,"lat":1.3333333,"adminName1":"Nakasongola","population":0},{"countryName":"Uganda","adminCode1":"E1","fclName":"country, state, region,...","countryCode":"UG","lng":33.666667,"fcodeName":"first-order administrative division","toponymName":"Namutumba District","fcl":"A","numberOfChildren":8,"name":"Namutumba District","fcode":"ADM1","geonameId":234069,"lat":0.833333,"adminName1":"Namutumba","population":0},{"countryName":"Uganda","adminCode1":"58","fclName":"country, state, region,...","countryCode":"UG","lng":31.1666667,"fcodeName":"first-order administrative division","toponymName":"Nebbi District","fcl":"A","name":"Nebbi District","fcode":"ADM1","geonameId":443360,"lat":2.4166667,"adminName1":"Nebbi","population":0},{"countryName":"Uganda","adminCode1":"59","fclName":"country, state, region,...","countryCode":"UG","lng":30.25,"fcodeName":"first-order administrative division","toponymName":"Ntungamo District","fcl":"A","name":"Ntungamo District","fcode":"ADM1","geonameId":443361,"lat":-0.9166667,"adminName1":"Ntungamo","population":0},{"countryName":"Uganda","adminCode1":"E2","fclName":"country, state, region,...","countryCode":"UG","lng":32.516389,"fcodeName":"first-order administrative division","toponymName":"Oyam District","fcl":"A","numberOfChildren":8,"name":"Oyam District","fcode":"ADM1","geonameId":7056295,"lat":2.368611,"adminName1":"Oyam","population":0},{"countryName":"Uganda","adminCode1":"92","fclName":"country, state, region,...","countryCode":"UG","lng":33.0833333,"fcodeName":"first-order administrative division","toponymName":"Pader District","fcl":"A","name":"Pader District","fcode":"ADM1","geonameId":448222,"lat":2.8333333,"adminName1":"Pader","population":0},{"countryName":"Uganda","adminCode1":"60","fclName":"country, state, region,...","countryCode":"UG","lng":33.8333333,"fcodeName":"first-order administrative division","toponymName":"Pallisa District","fcl":"A","name":"Pallisa District","fcode":"ADM1","geonameId":443362,"lat":1.1666667,"adminName1":"Pallisa","population":0},{"countryName":"Uganda","adminCode1":"61","fclName":"country, state, region,...","countryCode":"UG","lng":31.4166667,"fcodeName":"first-order administrative division","toponymName":"Rakai District","fcl":"A","name":"Rakai District","fcode":"ADM1","geonameId":443363,"lat":-0.6666667,"adminName1":"Rakai","population":0},{"countryName":"Uganda","adminCode1":"93","fclName":"country, state, region,...","countryCode":"UG","lng":29.9166667,"fcodeName":"first-order administrative division","toponymName":"Rukungiri District","fcl":"A","name":"Rukungiri District","fcode":"ADM1","geonameId":443364,"lat":-0.75,"adminName1":"Rukungiri","population":0},{"countryName":"Uganda","adminCode1":"74","fclName":"country, state, region,...","countryCode":"UG","lng":31.5,"fcodeName":"first-order administrative division","toponymName":"Sembabule District","fcl":"A","name":"Sembabule District","fcode":"ADM1","geonameId":443787,"lat":0,"adminName1":"Sembabule","population":0},{"countryName":"Uganda","adminCode1":"94","fclName":"country, state, region,...","countryCode":"UG","lng":34.3166667,"fcodeName":"first-order administrative division","toponymName":"Sironko District","fcl":"A","name":"Sironko District","fcode":"ADM1","geonameId":448223,"lat":1.25,"adminName1":"Sironko","population":0},{"countryName":"Uganda","adminCode1":"95","fclName":"country, state, region,...","countryCode":"UG","lng":33.5833333,"fcodeName":"first-order administrative division","toponymName":"Soroti District","fcl":"A","name":"Soroti District","fcode":"ADM1","geonameId":443365,"lat":1.5833333,"adminName1":"Soroti","population":0},{"countryName":"Uganda","adminCode1":"76","fclName":"country, state, region,...","countryCode":"UG","lng":34.0833333,"fcodeName":"first-order administrative division","toponymName":"Tororo District","fcl":"A","name":"Tororo District","fcode":"ADM1","geonameId":443366,"lat":0.75,"adminName1":"Tororo","population":0},{"countryName":"Uganda","adminCode1":"96","fclName":"country, state, region,...","countryCode":"UG","lng":32.5,"fcodeName":"first-order administrative division","toponymName":"Wakiso District","fcl":"A","name":"Wakiso District","fcode":"ADM1","geonameId":448224,"lat":0.1666667,"adminName1":"Wakiso","population":0},{"countryName":"Uganda","adminCode1":"97","fclName":"country, state, region,...","countryCode":"UG","lng":31.3333333,"fcodeName":"first-order administrative division","toponymName":"Yumbe District","fcl":"A","name":"Yumbe District","fcode":"ADM1","geonameId":448225,"lat":3.5,"adminName1":"Yumbe","population":0}]}