{"totalResultsCount":20,"geonames":[{"countryName":"Portugal","adminCode1":"02","fclName":"country, state, region,...","countryCode":"PT","lng":-8.5,"fcodeName":"first-order administrative division","toponymName":"Distrito de Aveiro","fcl":"A","name":"Aveiro","fcode":"ADM1","geonameId":2742610,"lat":40.75,"adminName1":"Aveiro","population":0},{"countryName":"Portugal","adminCode1":"05","fclName":"country, state, region,...","countryCode":"PT","lng":-6.75,"fcodeName":"first-order administrative division","toponymName":"Distrito de Bragança","fcl":"A","name":"Bragança","fcode":"ADM1","geonameId":2742026,"lat":41.5,"adminName1":"Bragança","population":0},{"countryName":"Portugal","adminCode1":"11","fclName":"country, state, region,...","countryCode":"PT","lng":-7.1666667,"fcodeName":"first-order administrative division","toponymName":"Distrito da Guarda","fcl":"A","numberOfChildren":1,"name":"Distrito da Guarda","fcode":"ADM1","geonameId":2738782,"lat":40.6666667,"adminName1":"Guarda","population":0},{"countryName":"Portugal","adminCode1":"03","fclName":"country, state, region,...","countryCode":"PT","lng":-7.8333333,"fcodeName":"first-order administrative division","toponymName":"Distrito de Beja","fcl":"A","name":"Distrito de Beja","fcode":"ADM1","geonameId":2270984,"lat":37.9666667,"adminName1":"Beja","population":0},{"countryName":"Portugal","adminCode1":"04","fclName":"country, state, region,...","countryCode":"PT","lng":-8.4166667,"fcodeName":"first-order administrative division","toponymName":"Distrito de Braga","fcl":"A","name":"Distrito de Braga","fcode":"ADM1","geonameId":2742031,"lat":41.5833333,"adminName1":"Braga","population":0},{"countryName":"Portugal","adminCode1":"06","fclName":"country, state, region,...","countryCode":"PT","lng":-7.5,"fcodeName":"first-order administrative division","toponymName":"Distrito de Castelo Branco","fcl":"A","numberOfChildren":2,"name":"Distrito de Castelo Branco","fcode":"ADM1","geonameId":2269513,"lat":40,"adminName1":"Castelo Branco","population":0},{"countryName":"Portugal","adminCode1":"07","fclName":"country, state, region,...","countryCode":"PT","lng":-8.4166667,"fcodeName":"first-order administrative division","toponymName":"Distrito de Coimbra","fcl":"A","name":"Distrito de Coimbra","fcode":"ADM1","geonameId":2740636,"lat":40.2,"adminName1":"Coimbra","population":0},{"countryName":"Portugal","adminCode1":"09","fclName":"country, state, region,...","countryCode":"PT","lng":-8.1666667,"fcodeName":"first-order administrative division","toponymName":"Distrito de Faro","fcl":"A","name":"Distrito de Faro","fcode":"ADM1","geonameId":2268337,"lat":37.2,"adminName1":"Faro","population":0},{"countryName":"Portugal","adminCode1":"13","fclName":"country, state, region,...","countryCode":"PT","lng":-8.8333333,"fcodeName":"first-order administrative division","toponymName":"Distrito de Leiria","fcl":"A","name":"Distrito de Leiria","fcode":"ADM1","geonameId":2267094,"lat":39.6666667,"adminName1":"Leiria","population":0},{"countryName":"Portugal","adminCode1":"16","fclName":"country, state, region,...","countryCode":"PT","lng":-7.5833333,"fcodeName":"first-order administrative division","toponymName":"Distrito de Portalegre","fcl":"A","numberOfChildren":9,"name":"Distrito de Portalegre","fcode":"ADM1","geonameId":2264507,"lat":39.25,"adminName1":"Portalegre","population":0},{"countryName":"Portugal","adminCode1":"18","fclName":"country, state, region,...","countryCode":"PT","lng":-8.5833333,"fcodeName":"first-order administrative division","toponymName":"Distrito de Santarém","fcl":"A","name":"Distrito de Santarém","fcode":"ADM1","geonameId":2263478,"lat":39.25,"adminName1":"Santarém","population":0},{"countryName":"Portugal","adminCode1":"19","fclName":"country, state, region,...","countryCode":"PT","lng":-8.5,"fcodeName":"first-order administrative division","toponymName":"Distrito de Setúbal","fcl":"A","name":"Distrito de Setúbal","fcode":"ADM1","geonameId":2262961,"lat":38.3333333,"adminName1":"Setúbal","population":0},{"countryName":"Portugal","adminCode1":"20","fclName":"country, state, region,...","countryCode":"PT","lng":-8.4166667,"fcodeName":"first-order administrative division","toponymName":"Distrito de Viana do Castelo","fcl":"A","name":"Distrito de Viana do Castelo","fcode":"ADM1","geonameId":2732772,"lat":41.9166667,"adminName1":"Viana do Castelo","population":0},{"countryName":"Portugal","adminCode1":"21","fclName":"country, state, region,...","countryCode":"PT","lng":-7.5833333,"fcodeName":"first-order administrative division","toponymName":"Distrito de Vila Real","fcl":"A","name":"Distrito de Vila Real","fcode":"ADM1","geonameId":2732437,"lat":41.5833333,"adminName1":"Vila Real","population":0},{"countryName":"Portugal","adminCode1":"22","fclName":"country, state, region,...","countryCode":"PT","lng":-7.8333333,"fcodeName":"first-order administrative division","toponymName":"Distrito de Viseu","fcl":"A","numberOfChildren":2,"name":"Distrito de Viseu","fcode":"ADM1","geonameId":2732264,"lat":40.75,"adminName1":"Viseu","population":0},{"countryName":"Portugal","adminCode1":"08","fclName":"country, state, region,...","countryCode":"PT","lng":-7.8333333,"fcodeName":"first-order administrative division","toponymName":"Distrito de Évora","fcl":"A","name":"Distrito de Évora","fcode":"ADM1","geonameId":2268404,"lat":38.5833333,"adminName1":"Évora","population":0},{"countryName":"Portugal","adminCode1":"17","fclName":"country, state, region,...","countryCode":"PT","lng":-8.3333333,"fcodeName":"first-order administrative division","toponymName":"Distrito do Porto","fcl":"A","numberOfChildren":1,"name":"Distrito do Porto","fcode":"ADM1","geonameId":2735941,"lat":41.25,"adminName1":"Porto","population":0},{"countryName":"Portugal","adminCode1":"14","fclName":"country, state, region,...","countryCode":"PT","lng":-9.1333333,"fcodeName":"first-order administrative division","toponymName":"Distrito de Lisboa","fcl":"A","numberOfChildren":2,"name":"Lisbon","fcode":"ADM1","geonameId":2267056,"lat":39,"adminName1":"Lisbon","population":0},{"countryName":"Portugal","adminCode1":"10","fclName":"country, state, region,...","countryCode":"PT","lng":-16.75,"fcodeName":"first-order administrative division","toponymName":"Região Autónoma da Madeira","fcl":"A","name":"Região Autónoma da Madeira","fcode":"ADM1","geonameId":2593105,"lat":32.6666667,"adminName1":"Madeira","population":238928},{"countryName":"Portugal","adminCode1":"23","fclName":"country, state, region,...","countryCode":"PT","lng":-28,"fcodeName":"first-order administrative division","toponymName":"Região Autónoma dos Açores","fcl":"A","name":"Região Autónoma dos Açores","fcode":"ADM1","geonameId":3411865,"lat":38.5,"adminName1":"Azores","population":242902}]}