{"totalResultsCount":15,"geonames":[{"countryName":"Liberia","adminCode1":"15","fclName":"country, state, region,...","countryCode":"LR","lng":-10.833333,"fcodeName":"first-order administrative division","toponymName":"Bomi County","fcl":"A","numberOfChildren":3,"name":"Bomi County","fcode":"ADM1","geonameId":2278324,"lat":6.666667,"adminName1":"Bomi","population":0},{"countryName":"Liberia","adminCode1":"01","fclName":"country, state, region,...","countryCode":"LR","lng":-9.6666667,"fcodeName":"first-order administrative division","toponymName":"Bong County","fcl":"A","numberOfChildren":8,"name":"Bong County","fcode":"ADM1","geonameId":2278292,"lat":7,"adminName1":"Bong","population":0},{"countryName":"Liberia","adminCode1":"21","fclName":"country, state, region,...","countryCode":"LR","lng":-10.4166667,"fcodeName":"first-order administrative division","toponymName":"Gbarpolu County","fcl":"A","numberOfChildren":5,"name":"Gbarpolu County","fcode":"ADM1","geonameId":2593119,"lat":7.1666667,"adminName1":"Gbarpolu","population":0},{"countryName":"Liberia","adminCode1":"11","fclName":"country, state, region,...","countryCode":"LR","lng":-9.75,"fcodeName":"first-order administrative division","toponymName":"Grand Bassa County","fcl":"A","numberOfChildren":8,"name":"Grand Bassa County","fcode":"ADM1","geonameId":2276630,"lat":6.25,"adminName1":"Grand Bassa","population":0},{"countryName":"Liberia","adminCode1":"12","fclName":"country, state, region,...","countryCode":"LR","lng":-11,"fcodeName":"first-order administrative division","toponymName":"Grand Cape Mount County","fcl":"A","numberOfChildren":6,"name":"Grand Cape Mount County","fcode":"ADM1","geonameId":2276627,"lat":7.1666667,"adminName1":"Grand Cape Mount","population":0},{"countryName":"Liberia","adminCode1":"19","fclName":"country, state, region,...","countryCode":"LR","lng":-8.0833333,"fcodeName":"first-order administrative division","toponymName":"Grand Gedeh County","fcl":"A","numberOfChildren":8,"name":"Grand Gedeh County","fcode":"ADM1","geonameId":2276622,"lat":5.9166667,"adminName1":"Grand Gedeh","population":148061},{"countryName":"Liberia","adminCode1":"16","fclName":"country, state, region,...","countryCode":"LR","lng":-8.25,"fcodeName":"first-order administrative division","toponymName":"Grand Kru County","fcl":"A","numberOfChildren":2,"name":"Grand Kru County","fcode":"ADM1","geonameId":2588490,"lat":4.9166667,"adminName1":"Grand Kru","population":0},{"countryName":"Liberia","adminCode1":"20","fclName":"country, state, region,...","countryCode":"LR","lng":-10,"fcodeName":"first-order administrative division","toponymName":"Lofa County","fcl":"A","numberOfChildren":9,"name":"Lofa County","fcode":"ADM1","geonameId":2275344,"lat":7.9166667,"adminName1":"Lofa","population":339112},{"countryName":"Liberia","adminCode1":"17","fclName":"country, state, region,...","countryCode":"LR","lng":-10.25,"fcodeName":"first-order administrative division","toponymName":"Margibi County","fcl":"A","numberOfChildren":2,"name":"Margibi County","fcode":"ADM1","geonameId":2588491,"lat":6.5,"adminName1":"Margibi","population":0},{"countryName":"Liberia","adminCode1":"13","fclName":"country, state, region,...","countryCode":"LR","lng":-7.75,"fcodeName":"first-order administrative division","toponymName":"Maryland County","fcl":"A","numberOfChildren":31,"name":"Maryland County","fcode":"ADM1","geonameId":2275099,"lat":4.75,"adminName1":"Maryland","population":0},{"countryName":"Liberia","adminCode1":"14","fclName":"country, state, region,...","countryCode":"LR","lng":-10.5,"fcodeName":"first-order administrative division","toponymName":"Montserrado County","fcl":"A","numberOfChildren":4,"name":"Montserrado County","fcode":"ADM1","geonameId":2274890,"lat":6.5,"adminName1":"Montserrado","population":0},{"countryName":"Liberia","adminCode1":"09","fclName":"country, state, region,...","countryCode":"LR","lng":-8.75,"fcodeName":"first-order administrative division","toponymName":"Nimba County","fcl":"A","numberOfChildren":9,"name":"Nimba County","fcode":"ADM1","geonameId":2274688,"lat":6.75,"adminName1":"Nimba","population":0},{"countryName":"Liberia","adminCode1":"18","fclName":"country, state, region,...","countryCode":"LR","lng":-9.3333333,"fcodeName":"first-order administrative division","toponymName":"River Cess County","fcl":"A","numberOfChildren":2,"name":"River Cess County","fcode":"ADM1","geonameId":2588492,"lat":6,"adminName1":"River Cess","population":72000},{"countryName":"Liberia","adminCode1":"22","fclName":"country, state, region,...","countryCode":"LR","lng":-7.9166667,"fcodeName":"first-order administrative division","toponymName":"River Gee County","fcl":"A","numberOfChildren":9,"name":"River Gee County","fcode":"ADM1","geonameId":2593120,"lat":5.25,"adminName1":"River Gee","population":0},{"countryName":"Liberia","adminCode1":"10","fclName":"country, state, region,...","countryCode":"LR","lng":-8.6666667,"fcodeName":"first-order administrative division","toponymName":"Sinoe County","fcl":"A","numberOfChildren":19,"name":"Sinoe County","fcode":"ADM1","geonameId":2273898,"lat":5.3333333,"adminName1":"Sinoe","population":0}]}