{"totalResultsCount":25,"geonames":[{"countryName":"Seychelles","adminCode1":"02","fclName":"country, state, region,...","countryCode":"SC","lng":55.4833333,"fcodeName":"first-order administrative division","toponymName":"Anse Boileau","fcl":"A","name":"Anse Boileau","fcode":"ADM1","geonameId":241449,"lat":-4.7083333,"adminName1":"Anse Boileau","population":4027},{"countryName":"Seychelles","adminCode1":"03","fclName":"country, state, region,...","countryCode":"SC","lng":55.45,"fcodeName":"first-order administrative division","toponymName":"Anse Etoile","fcl":"A","name":"Anse Etoile","fcode":"ADM1","geonameId":241447,"lat":-4.5916667,"adminName1":"Anse Etoile","population":4633},{"countryName":"Seychelles","adminCode1":"05","fclName":"country, state, region,...","countryCode":"SC","lng":55.5166667,"fcodeName":"first-order administrative division","toponymName":"Anse Royale","fcl":"A","name":"Anse Royale","fcode":"ADM1","geonameId":241444,"lat":-4.7416667,"adminName1":"Anse Royale","population":3773},{"countryName":"Seychelles","adminCode1":"01","fclName":"country, state, region,...","countryCode":"SC","lng":55.5166667,"fcodeName":"first-order administrative division","toponymName":"Anse aux Pins","fcl":"A","name":"Anse aux Pins","fcode":"ADM1","geonameId":241450,"lat":-4.6875,"adminName1":"Anse aux Pins","population":3638},{"countryName":"Seychelles","adminCode1":"28","fclName":"country, state, region,...","countryCode":"SC","lng":55.5166667,"fcodeName":"first-order administrative division","toponymName":"Au Cap","fcl":"A","name":"Au Cap","fcode":"ADM1","geonameId":448410,"lat":-4.7,"adminName1":"Au Cap","population":3205},{"countryName":"Seychelles","adminCode1":"06","fclName":"country, state, region,...","countryCode":"SC","lng":55.4833333,"fcodeName":"first-order administrative division","toponymName":"Baie Lazare","fcl":"A","name":"Baie Lazare","fcode":"ADM1","geonameId":241439,"lat":-4.7472222,"adminName1":"Baie Lazare","population":3053},{"countryName":"Seychelles","adminCode1":"07","fclName":"country, state, region,...","countryCode":"SC","lng":55.7333333,"fcodeName":"first-order administrative division","toponymName":"Baie Sainte Anne","fcl":"A","name":"Baie Sainte Anne","fcode":"ADM1","geonameId":241438,"lat":-4.3166667,"adminName1":"Baie Sainte Anne","population":3918},{"countryName":"Seychelles","adminCode1":"08","fclName":"country, state, region,...","countryCode":"SC","lng":55.4333333,"fcodeName":"first-order administrative division","toponymName":"Beau Vallon","fcl":"A","name":"Beau Vallon","fcode":"ADM1","geonameId":241428,"lat":-4.6083333,"adminName1":"Beau Vallon","population":3892},{"countryName":"Seychelles","adminCode1":"09","fclName":"country, state, region,...","countryCode":"SC","lng":55.45,"fcodeName":"first-order administrative division","toponymName":"Bel Air","fcl":"A","name":"Bel Air","fcode":"ADM1","geonameId":241426,"lat":-4.6333333,"adminName1":"Bel Air","population":2878},{"countryName":"Seychelles","adminCode1":"10","fclName":"country, state, region,...","countryCode":"SC","lng":55.4041667,"fcodeName":"first-order administrative division","toponymName":"Bel Ombre","fcl":"A","name":"Bel Ombre","fcode":"ADM1","geonameId":241424,"lat":-4.625,"adminName1":"Bel Ombre","population":3753},{"countryName":"Seychelles","adminCode1":"11","fclName":"country, state, region,...","countryCode":"SC","lng":55.4833333,"fcodeName":"first-order administrative division","toponymName":"Cascade","fcl":"A","name":"Cascade","fcode":"ADM1","geonameId":241396,"lat":-4.6666667,"adminName1":"Cascade","population":3684},{"countryName":"Seychelles","adminCode1":"26","fclName":"country, state, region,...","countryCode":"SC","lng":55.45,"fcodeName":"first-order administrative division","toponymName":"English River","fcl":"A","name":"English River","fcode":"ADM1","geonameId":241302,"lat":-4.5916667,"adminName1":"English River","population":4023},{"countryName":"Seychelles","adminCode1":"12","fclName":"country, state, region,...","countryCode":"SC","lng":55.4416667,"fcodeName":"first-order administrative division","toponymName":"Glacis","fcl":"A","name":"Glacis","fcode":"ADM1","geonameId":241336,"lat":-4.575,"adminName1":"Glacis","population":3640},{"countryName":"Seychelles","adminCode1":"24","fclName":"country, state, region,...","countryCode":"SC","lng":55.4583333,"fcodeName":"first-order administrative division","toponymName":"Grand Anse Mahe","fcl":"A","name":"Grand Anse Mahe","fcode":"ADM1","geonameId":241330,"lat":-4.6833333,"adminName1":"Anse aux Pins","population":0},{"countryName":"Seychelles","adminCode1":"14","fclName":"country, state, region,...","countryCode":"SC","lng":55.7166667,"fcodeName":"first-order administrative division","toponymName":"Grand Anse Praslin","fcl":"A","name":"Grand Anse Praslin","fcode":"ADM1","geonameId":241331,"lat":-4.3166667,"adminName1":"Grand Anse Praslin","population":3609},{"countryName":"Seychelles","adminCode1":"25","fclName":"country, state, region,...","countryCode":"SC","lng":55.4666667,"fcodeName":"first-order administrative division","toponymName":"Inner Islands","fcl":"A","name":"Inner Islands","fcode":"ADM1","geonameId":241311,"lat":-4.6666667,"adminName1":"Inner Islands","population":0},{"countryName":"Seychelles","adminCode1":"29","fclName":"country, state, region,...","countryCode":"SC","lng":55.5,"fcodeName":"first-order administrative division","toponymName":"Les Mamelles","fcl":"A","name":"Les Mamelles","fcode":"ADM1","geonameId":448408,"lat":-4.6166667,"adminName1":"Beau Vallon","population":2159},{"countryName":"Seychelles","adminCode1":"17","fclName":"country, state, region,...","countryCode":"SC","lng":55.45,"fcodeName":"first-order administrative division","toponymName":"Mont Buxton","fcl":"A","name":"Mont Buxton","fcode":"ADM1","geonameId":241252,"lat":-4.6166667,"adminName1":"Mont Buxton","population":2995},{"countryName":"Seychelles","adminCode1":"18","fclName":"country, state, region,...","countryCode":"SC","lng":55.4583333,"fcodeName":"first-order administrative division","toponymName":"Mont Fleuri","fcl":"A","name":"Mont Fleuri","fcode":"ADM1","geonameId":241251,"lat":-4.6333333,"adminName1":"Mont Fleuri","population":3610},{"countryName":"Seychelles","adminCode1":"19","fclName":"country, state, region,...","countryCode":"SC","lng":55.4583333,"fcodeName":"first-order administrative division","toponymName":"Plaisance","fcl":"A","name":"Plaisance","fcode":"ADM1","geonameId":241224,"lat":-4.65,"adminName1":"Plaisance","population":3220},{"countryName":"Seychelles","adminCode1":"20","fclName":"country, state, region,...","countryCode":"SC","lng":55.5166667,"fcodeName":"first-order administrative division","toponymName":"Pointe Larue","fcl":"A","name":"Pointe Larue","fcode":"ADM1","geonameId":241221,"lat":-4.6666667,"adminName1":"Pointe Larue","population":2775},{"countryName":"Seychelles","adminCode1":"27","fclName":"country, state, region,...","countryCode":"SC","lng":55.4,"fcodeName":"first-order administrative division","toponymName":"Port Glaud","fcl":"A","name":"Port Glaud","fcode":"ADM1","geonameId":241215,"lat":-4.65,"adminName1":"Port Glaud","population":2273},{"countryName":"Seychelles","adminCode1":"30","fclName":"country, state, region,...","countryCode":"SC","lng":55.4666667,"fcodeName":"first-order administrative division","toponymName":"Roche Caiman","fcl":"A","name":"Roche Caiman","fcode":"ADM1","geonameId":448409,"lat":-4.65,"adminName1":"Bel Ombre","population":3056},{"countryName":"Seychelles","adminCode1":"22","fclName":"country, state, region,...","countryCode":"SC","lng":55.4333333,"fcodeName":"first-order administrative division","toponymName":"Saint Louis","fcl":"A","name":"Saint Louis","fcode":"ADM1","geonameId":241181,"lat":-4.6333333,"adminName1":"Saint Louis","population":3224},{"countryName":"Seychelles","adminCode1":"23","fclName":"country, state, region,...","countryCode":"SC","lng":55.5166667,"fcodeName":"first-order administrative division","toponymName":"Takamaka","fcl":"A","name":"Takamaka","fcode":"ADM1","geonameId":241151,"lat":-4.7833333,"adminName1":"Takamaka","population":2602}]}