{"totalResultsCount":6,"geonames":[{"countryName":"Faroe Islands","adminCode1":"OS","fclName":"country, state, region,...","countryCode":"FO","lng":-6.8666667,"fcodeName":"first-order administrative division","toponymName":"Eysturoyar sýsla","fcl":"A","name":"Eysturoy","fcode":"ADM1","geonameId":2622387,"lat":62.2166667,"adminName1":"Eysturoy","population":0},{"countryName":"Faroe Islands","adminCode1":"NO","fclName":"country, state, region,...","countryCode":"FO","lng":-6.5833333,"fcodeName":"first-order administrative division","toponymName":"Norðoyar sýsla","fcl":"A","name":"Norðoyar","fcode":"ADM1","geonameId":2616145,"lat":62.2833333,"adminName1":"Norðoyar","population":0},{"countryName":"Faroe Islands","adminCode1":"SA","fclName":"country, state, region,...","countryCode":"FO","lng":-6.75,"fcodeName":"first-order administrative division","toponymName":"Sandoyar Sýsla","fcl":"A","name":"Sandoy","fcode":"ADM1","geonameId":2614219,"lat":61.8333333,"adminName1":"Sandoy","population":1353},{"countryName":"Faroe Islands","adminCode1":"ST","fclName":"country, state, region,...","countryCode":"FO","lng":-7,"fcodeName":"first-order administrative division","toponymName":"Streymoyar Sýsla","fcl":"A","name":"Streymoy","fcode":"ADM1","geonameId":2612225,"lat":62.1333333,"adminName1":"Streymoy","population":3356},{"countryName":"Faroe Islands","adminCode1":"SU","fclName":"country, state, region,...","countryCode":"FO","lng":-6.8166667,"fcodeName":"first-order administrative division","toponymName":"Suðuroyar sýsla","fcl":"A","name":"Suðuroy","fcode":"ADM1","geonameId":2612137,"lat":61.4833333,"adminName1":"Suðuroy","population":0},{"countryName":"Faroe Islands","adminCode1":"VG","fclName":"country, state, region,...","countryCode":"FO","lng":-7.25,"fcodeName":"first-order administrative division","toponymName":"Vága Sýsla","fcl":"A","name":"Vágar","fcode":"ADM1","geonameId":2610816,"lat":62.0833333,"adminName1":"Vágar","population":2972}]}