{"totalResultsCount":14,"geonames":[{"countryName":"Czech Republic","adminCode1":"52","fclName":"country, state, region,...","countryCode":"CZ","lng":14.4666667,"fcodeName":"first-order administrative division","toponymName":"Hlavní město Praha","fcl":"A","numberOfChildren":1,"name":"Hlavní město Praha","fcode":"ADM1","geonameId":3067695,"lat":50.0833333,"adminName1":"Hlavní Mesto Praha","population":1167050},{"countryName":"Czech Republic","adminCode1":"79","fclName":"country, state, region,...","countryCode":"CZ","lng":14.5,"fcodeName":"first-order administrative division","toponymName":"Jihočeský Kraj","fcl":"A","numberOfChildren":7,"name":"Jihočeský Kraj","fcode":"ADM1","geonameId":3339537,"lat":49.0833333,"adminName1":"Jihočeský Kraj","population":625703},{"countryName":"Czech Republic","adminCode1":"81","fclName":"country, state, region,...","countryCode":"CZ","lng":12.6666667,"fcodeName":"first-order administrative division","toponymName":"Karlovarský kraj","fcl":"A","numberOfChildren":3,"name":"Karlovarský kraj","fcode":"ADM1","geonameId":3339539,"lat":50.1666667,"adminName1":"Karlovarský Kraj","population":304294},{"countryName":"Czech Republic","adminCode1":"80","fclName":"country, state, region,...","countryCode":"CZ","lng":15.5,"fcodeName":"first-order administrative division","toponymName":"Kraj Vysočina","fcl":"A","numberOfChildren":5,"name":"Kraj Vysočina","fcode":"ADM1","geonameId":3339538,"lat":49.4166667,"adminName1":"Vysočina","population":517114},{"countryName":"Czech Republic","adminCode1":"82","fclName":"country, state, region,...","countryCode":"CZ","lng":15.9166667,"fcodeName":"first-order administrative division","toponymName":"Královéhradecký kraj","fcl":"A","numberOfChildren":5,"name":"Královéhradecký kraj","fcode":"ADM1","geonameId":3339540,"lat":50.4166667,"adminName1":"Královéhradecký Kraj","population":546691},{"countryName":"Czech Republic","adminCode1":"83","fclName":"country, state, region,...","countryCode":"CZ","lng":15,"fcodeName":"first-order administrative division","toponymName":"Liberecký kraj","fcl":"A","numberOfChildren":4,"name":"Liberecký kraj","fcode":"ADM1","geonameId":3339541,"lat":50.75,"adminName1":"Liberecký Kraj","population":427855},{"countryName":"Czech Republic","adminCode1":"85","fclName":"country, state, region,...","countryCode":"CZ","lng":18,"fcodeName":"first-order administrative division","toponymName":"Moravskoslezský kraj","fcl":"A","numberOfChildren":6,"name":"Moravskoslezský kraj","fcode":"ADM1","geonameId":3339573,"lat":49.8333333,"adminName1":"Moravskoslezský Kraj","population":312056},{"countryName":"Czech Republic","adminCode1":"84","fclName":"country, state, region,...","countryCode":"CZ","lng":17.1666667,"fcodeName":"first-order administrative division","toponymName":"Olomoucký kraj","fcl":"A","numberOfChildren":5,"name":"Olomoucký kraj","fcode":"ADM1","geonameId":3339542,"lat":49.75,"adminName1":"Olomoucký Kraj","population":635675},{"countryName":"Czech Republic","adminCode1":"86","fclName":"country, state, region,...","countryCode":"CZ","lng":16.0833333,"fcodeName":"first-order administrative division","toponymName":"Pardubický kraj","fcl":"A","numberOfChildren":4,"name":"Pardubický kraj","fcode":"ADM1","geonameId":3339574,"lat":49.8333333,"adminName1":"Pardubický Kraj","population":504641},{"countryName":"Czech Republic","adminCode1":"87","fclName":"country, state, region,...","countryCode":"CZ","lng":13.1666667,"fcodeName":"first-order administrative division","toponymName":"Plzeňský kraj","fcl":"A","numberOfChildren":7,"name":"Plzeňský kraj","fcode":"ADM1","geonameId":3339575,"lat":49.5,"adminName1":"Plzeňský Kraj","population":550343},{"countryName":"Czech Republic","adminCode1":"78","fclName":"country, state, region,...","countryCode":"CZ","lng":16.6133880615234,"fcodeName":"first-order administrative division","toponymName":"Jihomoravský kraj","fcl":"A","numberOfChildren":7,"name":"South Moravian Region","fcode":"ADM1","geonameId":3339536,"lat":49.2012238279017,"adminName1":"South Moravian Region","population":1121712},{"countryName":"Czech Republic","adminCode1":"88","fclName":"country, state, region,...","countryCode":"CZ","lng":14.1963958740234,"fcodeName":"first-order administrative division","toponymName":"Středočeský kraj","fcl":"A","numberOfChildren":12,"name":"Středočeský kraj","fcode":"ADM1","geonameId":3339576,"lat":50.1271815317701,"adminName1":"Středočeský Kraj","population":1140433},{"countryName":"Czech Republic","adminCode1":"90","fclName":"country, state, region,...","countryCode":"CZ","lng":17.75,"fcodeName":"first-order administrative division","toponymName":"Zlínský kraj","fcl":"A","numberOfChildren":4,"name":"Zlínský kraj","fcode":"ADM1","geonameId":3339578,"lat":49.1666667,"adminName1":"Zlínský Kraj","population":590784},{"countryName":"Czech Republic","adminCode1":"89","fclName":"country, state, region,...","countryCode":"CZ","lng":13.8333333,"fcodeName":"first-order administrative division","toponymName":"Ústecký kraj","fcl":"A","numberOfChildren":7,"name":"Ústecký kraj","fcode":"ADM1","geonameId":3339577,"lat":50.5,"adminName1":"Ústecký Kraj","population":821468}]}