{"totalResultsCount":9,"geonames":[{"countryName":"San Marino","adminCode1":"01","fclName":"country, state, region,...","countryCode":"SM","lng":12.4166667,"fcodeName":"first-order administrative division","toponymName":"Castello di Acquaviva","fcl":"A","name":"Castello di Acquaviva","fcode":"ADM1","geonameId":3345303,"lat":43.95,"adminName1":"Acquaviva","population":1578},{"countryName":"San Marino","adminCode1":"06","fclName":"country, state, region,...","countryCode":"SM","lng":12.445621490478516,"fcodeName":"first-order administrative division","toponymName":"Castello di Borgo Maggiore","fcl":"A","name":"Castello di Borgo Maggiore","fcode":"ADM1","geonameId":3345304,"lat":43.94092275201342,"adminName1":"Borgo Maggiore","population":6828},{"countryName":"San Marino","adminCode1":"03","fclName":"country, state, region,...","countryCode":"SM","lng":12.4833333,"fcodeName":"first-order administrative division","toponymName":"Castello di Domagnano","fcl":"A","name":"Castello di Domagnano","fcode":"ADM1","geonameId":3345305,"lat":43.9541667,"adminName1":"Domagnano","population":2808},{"countryName":"San Marino","adminCode1":"04","fclName":"country, state, region,...","countryCode":"SM","lng":12.498493194580078,"fcodeName":"first-order administrative division","toponymName":"Castello di Faetano","fcl":"A","name":"Castello di Faetano","fcode":"ADM1","geonameId":3345306,"lat":43.925099111040645,"adminName1":"Faetano","population":1010},{"countryName":"San Marino","adminCode1":"05","fclName":"country, state, region,...","countryCode":"SM","lng":12.456521987915039,"fcodeName":"first-order administrative division","toponymName":"Castello di Fiorentino","fcl":"A","name":"Castello di Fiorentino","fcode":"ADM1","geonameId":3345307,"lat":43.911435472319255,"adminName1":"Fiorentino","population":2147},{"countryName":"San Marino","adminCode1":"08","fclName":"country, state, region,...","countryCode":"SM","lng":12.474117279052734,"fcodeName":"first-order administrative division","toponymName":"Castello di Montegiardino","fcl":"A","name":"Castello di Montegiardino","fcode":"ADM1","geonameId":3345308,"lat":43.90902391624818,"adminName1":"Montegiardino","population":796},{"countryName":"San Marino","adminCode1":"07","fclName":"country, state, region,...","countryCode":"SM","lng":12.45,"fcodeName":"first-order administrative division","toponymName":"Castello di San Marino Città","fcl":"A","name":"Castello di San Marino Città","fcode":"ADM1","geonameId":3345302,"lat":43.9333333,"adminName1":"San Marino","population":0},{"countryName":"San Marino","adminCode1":"09","fclName":"country, state, region,...","countryCode":"SM","lng":12.4666667,"fcodeName":"first-order administrative division","toponymName":"Castello di Serravalle","fcl":"A","name":"Castello di Serravalle","fcode":"ADM1","geonameId":3166650,"lat":43.9666667,"adminName1":"Serravalle","population":9566},{"countryName":"San Marino","adminCode1":"02","fclName":"country, state, region,...","countryCode":"SM","lng":12.4166667,"fcodeName":"first-order administrative division","toponymName":"Castello di Chiesanuova","fcl":"A","name":"Chiesanuova","fcode":"ADM1","geonameId":3178807,"lat":43.9166667,"adminName1":"Chiesanuova","population":981}]}