{"totalResultsCount":21,"geonames":[{"countryName":"Croatia","adminCode1":"01","fclName":"country, state, region,...","countryCode":"HR","lng":17,"fcodeName":"first-order administrative division","toponymName":"Bjelovarsko-Bilogorska Županija","fcl":"A","numberOfChildren":5,"name":"Bjelovarsko-Bilogorska Županija","fcode":"ADM1","geonameId":3337511,"lat":45.6666667,"adminName1":"Bjelovarsko-Bilogorska","population":0},{"countryName":"Croatia","adminCode1":"02","fclName":"country, state, region,...","countryCode":"HR","lng":17.75,"fcodeName":"first-order administrative division","toponymName":"Brodsko-Posavska Županija","fcl":"A","numberOfChildren":2,"name":"Brodsko-Posavska Županija","fcode":"ADM1","geonameId":3337512,"lat":45.1666667,"adminName1":"Brodsko-Posavska","population":0},{"countryName":"Croatia","adminCode1":"03","fclName":"country, state, region,...","countryCode":"HR","lng":17.5,"fcodeName":"first-order administrative division","toponymName":"Dubrovačko-Neretvanska Županija","fcl":"A","numberOfChildren":3,"name":"Dubrovačko-Neretvanska Županija","fcode":"ADM1","geonameId":3337513,"lat":42.8333333,"adminName1":"Dubrovačko-Neretvanska","population":0},{"countryName":"Croatia","adminCode1":"21","fclName":"country, state, region,...","countryCode":"HR","lng":15.977296829223633,"fcodeName":"first-order administrative division","toponymName":"Grad Zagreb","fcl":"A","numberOfChildren":2,"name":"Grad Zagreb","fcode":"ADM1","geonameId":3337532,"lat":45.81306772949855,"adminName1":"Grad Zagreb","population":0},{"countryName":"Croatia","adminCode1":"04","fclName":"country, state, region,...","countryCode":"HR","lng":13.9166667,"fcodeName":"first-order administrative division","toponymName":"Istarska Županija","fcl":"A","numberOfChildren":7,"name":"Istarska Županija","fcode":"ADM1","geonameId":3337514,"lat":45.25,"adminName1":"Istarska","population":0},{"countryName":"Croatia","adminCode1":"05","fclName":"country, state, region,...","countryCode":"HR","lng":15.5833333,"fcodeName":"first-order administrative division","toponymName":"Karlovačka Županija","fcl":"A","numberOfChildren":6,"name":"Karlovačka Županija","fcode":"ADM1","geonameId":3337515,"lat":45.3333333,"adminName1":"Karlovačka","population":0},{"countryName":"Croatia","adminCode1":"06","fclName":"country, state, region,...","countryCode":"HR","lng":16.8333333,"fcodeName":"first-order administrative division","toponymName":"Koprivničko-Križevačka Županija","fcl":"A","numberOfChildren":3,"name":"Koprivničko-Križevačka Županija","fcode":"ADM1","geonameId":3337518,"lat":46.1666667,"adminName1":"Koprivničko-Križevačka","population":0},{"countryName":"Croatia","adminCode1":"07","fclName":"country, state, region,...","countryCode":"HR","lng":16,"fcodeName":"first-order administrative division","toponymName":"Krapinsko-Zagorska Županija","fcl":"A","numberOfChildren":5,"name":"Krapinsko-Zagorska Županija","fcode":"ADM1","geonameId":3337519,"lat":46.0833333,"adminName1":"Krapinsko-Zagorska","population":0},{"countryName":"Croatia","adminCode1":"08","fclName":"country, state, region,...","countryCode":"HR","lng":15.4166667,"fcodeName":"first-order administrative division","toponymName":"Ličko-Senjska Županija","fcl":"A","name":"Ličko-Senjska Županija","fcode":"ADM1","geonameId":3337520,"lat":44.6666667,"adminName1":"Ličko-Senjska","population":0},{"countryName":"Croatia","adminCode1":"09","fclName":"country, state, region,...","countryCode":"HR","lng":16.5,"fcodeName":"first-order administrative division","toponymName":"Međimurska Županija","fcl":"A","numberOfChildren":1,"name":"Međimurska Županija","fcode":"ADM1","geonameId":3337521,"lat":46.4166667,"adminName1":"Međimurska","population":0},{"countryName":"Croatia","adminCode1":"10","fclName":"country, state, region,...","countryCode":"HR","lng":18.4166667,"fcodeName":"first-order administrative division","toponymName":"Osječko-Baranjska Županija","fcl":"A","numberOfChildren":6,"name":"Osječko-Baranjska Županija","fcode":"ADM1","geonameId":3337522,"lat":45.5,"adminName1":"Osječko-Baranjska","population":0},{"countryName":"Croatia","adminCode1":"11","fclName":"country, state, region,...","countryCode":"HR","lng":17.6666667,"fcodeName":"first-order administrative division","toponymName":"Požeško-Slavonska Županija","fcl":"A","numberOfChildren":2,"name":"Požeško-Slavonska Županija","fcode":"ADM1","geonameId":3337523,"lat":45.4166667,"adminName1":"Požeško-Slavonska","population":0},{"countryName":"Croatia","adminCode1":"12","fclName":"country, state, region,...","countryCode":"HR","lng":14.5819444,"fcodeName":"first-order administrative division","toponymName":"Primorsko-Goranska Županija","fcl":"A","numberOfChildren":7,"name":"Primorsko-Goranska Županija","fcode":"ADM1","geonameId":3337524,"lat":45.0030556,"adminName1":"Primorsko-Goranska","population":0},{"countryName":"Croatia","adminCode1":"14","fclName":"country, state, region,...","countryCode":"HR","lng":16.5,"fcodeName":"first-order administrative division","toponymName":"Sisačko-Moslavačka Županija","fcl":"A","numberOfChildren":8,"name":"Sisačko-Moslavačka Županija","fcode":"ADM1","geonameId":3337526,"lat":45.4166667,"adminName1":"Sisačko-Moslavačka","population":0},{"countryName":"Croatia","adminCode1":"15","fclName":"country, state, region,...","countryCode":"HR","lng":16.5,"fcodeName":"first-order administrative division","toponymName":"Splitsko-Dalmatinska Županija","fcl":"A","numberOfChildren":10,"name":"Splitsko-Dalmatinska Županija","fcode":"ADM1","geonameId":3337527,"lat":43.1666667,"adminName1":"Splitsko-Dalmatinska","population":0},{"countryName":"Croatia","adminCode1":"16","fclName":"country, state, region,...","countryCode":"HR","lng":16.3333333,"fcodeName":"first-order administrative division","toponymName":"Varaždinska Županija","fcl":"A","numberOfChildren":4,"name":"Varaždinska Županija","fcode":"ADM1","geonameId":3337528,"lat":46.25,"adminName1":"Varaždinska","population":0},{"countryName":"Croatia","adminCode1":"17","fclName":"country, state, region,...","countryCode":"HR","lng":17.5833333,"fcodeName":"first-order administrative division","toponymName":"Virovitičko-Podravska Županija","fcl":"A","numberOfChildren":3,"name":"Virovitičko-Podravska Županija","fcode":"ADM1","geonameId":3337533,"lat":45.75,"adminName1":"Virovitičk-Podravska","population":0},{"countryName":"Croatia","adminCode1":"18","fclName":"country, state, region,...","countryCode":"HR","lng":18.9166667,"fcodeName":"first-order administrative division","toponymName":"Vukovarsko-Srijemska Županija","fcl":"A","numberOfChildren":3,"name":"Vukovarsko-Srijemska Županija","fcode":"ADM1","geonameId":3337529,"lat":45.1666667,"adminName1":"Vukovarsko-Srijemska","population":0},{"countryName":"Croatia","adminCode1":"19","fclName":"country, state, region,...","countryCode":"HR","lng":15.3333333,"fcodeName":"first-order administrative division","toponymName":"Zadarska Županija","fcl":"A","numberOfChildren":1,"name":"Zadarska Županija","fcode":"ADM1","geonameId":3337530,"lat":44.0833333,"adminName1":"Zadarska","population":0},{"countryName":"Croatia","adminCode1":"20","fclName":"country, state, region,...","countryCode":"HR","lng":16.0833333,"fcodeName":"first-order administrative division","toponymName":"Zagrebačka Županija","fcl":"A","numberOfChildren":8,"name":"Zagrebačka Županija","fcode":"ADM1","geonameId":3337531,"lat":45.75,"adminName1":"Zagrebačka","population":0},{"countryName":"Croatia","adminCode1":"13","fclName":"country, state, region,...","countryCode":"HR","lng":15.9166667,"fcodeName":"first-order administrative division","toponymName":"Šibensko-Kninska Županija","fcl":"A","numberOfChildren":2,"name":"Šibensko-Kninska Županija","fcode":"ADM1","geonameId":3337525,"lat":43.8333333,"adminName1":"Šibensko-Kniniska","population":0}]}