{"totalResultsCount":13,"geonames":[{"countryName":"Namibia","adminCode1":"28","fclName":"country, state, region,...","countryCode":"NA","lng":23.75,"fcodeName":"first-order administrative division","toponymName":"Caprivi","fcl":"A","name":"Caprivi","fcode":"ADM1","geonameId":1090052,"lat":-17.833333,"adminName1":"Caprivi","population":0},{"countryName":"Namibia","adminCode1":"29","fclName":"country, state, region,...","countryCode":"NA","lng":15.33333,"fcodeName":"first-order administrative division","toponymName":"Erongo","fcl":"A","name":"Erongo","fcode":"ADM1","geonameId":3371199,"lat":-22.08333,"adminName1":"Erongo","population":132032},{"countryName":"Namibia","adminCode1":"30","fclName":"country, state, region,...","countryCode":"NA","lng":17.25,"fcodeName":"first-order administrative division","toponymName":"Hardap","fcl":"A","name":"Hardap","fcode":"ADM1","geonameId":3371200,"lat":-24.5,"adminName1":"Hardap","population":65800},{"countryName":"Namibia","adminCode1":"31","fclName":"country, state, region,...","countryCode":"NA","lng":17.5,"fcodeName":"first-order administrative division","toponymName":"Karas","fcl":"A","name":"Karas","fcode":"ADM1","geonameId":3371201,"lat":-27,"adminName1":"Karas","population":70222},{"countryName":"Namibia","adminCode1":"21","fclName":"country, state, region,...","countryCode":"NA","lng":17.08333,"fcodeName":"first-order administrative division","toponymName":"Khomas","fcl":"A","name":"Khomas","fcode":"ADM1","geonameId":3352137,"lat":-22.75,"adminName1":"Khomas","population":0},{"countryName":"Namibia","adminCode1":"32","fclName":"country, state, region,...","countryCode":"NA","lng":13.75,"fcodeName":"first-order administrative division","toponymName":"Kunene","fcl":"A","name":"Kunene","fcode":"ADM1","geonameId":3371202,"lat":-19.41667,"adminName1":"Kunene","population":67054},{"countryName":"Namibia","adminCode1":"33","fclName":"country, state, region,...","countryCode":"NA","lng":16.75,"fcodeName":"first-order administrative division","toponymName":"Ohangwena","fcl":"A","name":"Ohangwena","fcode":"ADM1","geonameId":3371203,"lat":-17.58333,"adminName1":"Ohangwena","population":238744},{"countryName":"Namibia","adminCode1":"34","fclName":"country, state, region,...","countryCode":"NA","lng":19.5,"fcodeName":"first-order administrative division","toponymName":"Okavango","fcl":"A","name":"Okavango","fcode":"ADM1","geonameId":3371204,"lat":-18.3333333,"adminName1":"Okavango","population":0},{"countryName":"Namibia","adminCode1":"35","fclName":"country, state, region,...","countryCode":"NA","lng":19.41667,"fcodeName":"first-order administrative division","toponymName":"Omaheke","fcl":"A","name":"Omaheke","fcode":"ADM1","geonameId":3371205,"lat":-21.75,"adminName1":"Omaheke","population":71057},{"countryName":"Namibia","adminCode1":"36","fclName":"country, state, region,...","countryCode":"NA","lng":14.83333,"fcodeName":"first-order administrative division","toponymName":"Omusati","fcl":"A","name":"Omusati","fcode":"ADM1","geonameId":3371206,"lat":-18.33333,"adminName1":"Omusati","population":234691},{"countryName":"Namibia","adminCode1":"37","fclName":"country, state, region,...","countryCode":"NA","lng":15.75,"fcodeName":"first-order administrative division","toponymName":"Oshana","fcl":"A","name":"Oshana","fcode":"ADM1","geonameId":3371207,"lat":-18.5,"adminName1":"Oshana","population":210123},{"countryName":"Namibia","adminCode1":"38","fclName":"country, state, region,...","countryCode":"NA","lng":17.0833333,"fcodeName":"first-order administrative division","toponymName":"Oshikoto","fcl":"A","name":"Oshikoto","fcode":"ADM1","geonameId":3371208,"lat":-18.5,"adminName1":"Oshikoto","population":167525},{"countryName":"Namibia","adminCode1":"39","fclName":"country, state, region,...","countryCode":"NA","lng":18,"fcodeName":"first-order administrative division","toponymName":"Otjozondjupa","fcl":"A","name":"Otjozondjupa","fcode":"ADM1","geonameId":3371209,"lat":-20.3333333,"adminName1":"Otjozondjupa","population":144651}]}