{"totalResultsCount":19,"geonames":[{"countryName":"Uruguay","adminCode1":"01","fclName":"country, state, region,...","countryCode":"UY","lng":-57,"fcodeName":"first-order administrative division","toponymName":"Departamento de Artigas","fcl":"A","name":"Artigas","fcode":"ADM1","geonameId":3443756,"lat":-30.5833333,"adminName1":"Artigas","population":78391},{"countryName":"Uruguay","adminCode1":"02","fclName":"country, state, region,...","countryCode":"UY","lng":-56.2886111,"fcodeName":"first-order administrative division","toponymName":"Departamento de Canelones","fcl":"A","name":"Canelones","fcode":"ADM1","geonameId":3443411,"lat":-34.6444444,"adminName1":"Canelones","population":490595},{"countryName":"Uruguay","adminCode1":"03","fclName":"country, state, region,...","countryCode":"UY","lng":-54.3333333,"fcodeName":"first-order administrative division","toponymName":"Departamento de Cerro Largo","fcl":"A","name":"Cerro Largo","fcode":"ADM1","geonameId":3443173,"lat":-32.3333333,"adminName1":"Cerro Largo","population":87019},{"countryName":"Uruguay","adminCode1":"04","fclName":"country, state, region,...","countryCode":"UY","lng":-57.5,"fcodeName":"first-order administrative division","toponymName":"Departamento de Colonia","fcl":"A","name":"Colonia","fcode":"ADM1","geonameId":3443025,"lat":-34.1666667,"adminName1":"Colonia","population":119249},{"countryName":"Uruguay","adminCode1":"05","fclName":"country, state, region,...","countryCode":"UY","lng":-56.0833333,"fcodeName":"first-order administrative division","toponymName":"Departamento de Durazno","fcl":"A","name":"Departamento de Durazno","fcode":"ADM1","geonameId":3442720,"lat":-33.0833333,"adminName1":"Durazno","population":59176},{"countryName":"Uruguay","adminCode1":"06","fclName":"country, state, region,...","countryCode":"UY","lng":-56.8333333,"fcodeName":"first-order administrative division","toponymName":"Departamento de Flores","fcl":"A","name":"Departamento de Flores","fcode":"ADM1","geonameId":3442587,"lat":-33.5833333,"adminName1":"Flores","population":25109},{"countryName":"Uruguay","adminCode1":"10","fclName":"country, state, region,...","countryCode":"UY","lng":-56.1819444,"fcodeName":"first-order administrative division","toponymName":"Departamento de Montevideo","fcl":"A","name":"Departamento de Montevideo","fcode":"ADM1","geonameId":3441572,"lat":-34.8652778,"adminName1":"Montevideo","population":1324115},{"countryName":"Uruguay","adminCode1":"11","fclName":"country, state, region,...","countryCode":"UY","lng":-57.25,"fcodeName":"first-order administrative division","toponymName":"Departamento de Paysandú","fcl":"A","name":"Departamento de Paysandú","fcode":"ADM1","geonameId":3441242,"lat":-32,"adminName1":"Paysandú","population":113506},{"countryName":"Uruguay","adminCode1":"13","fclName":"country, state, region,...","countryCode":"UY","lng":-55.25,"fcodeName":"first-order administrative division","toponymName":"Departamento de Rivera","fcl":"A","name":"Departamento de Rivera","fcode":"ADM1","geonameId":3440780,"lat":-31.5,"adminName1":"Rivera","population":105701},{"countryName":"Uruguay","adminCode1":"14","fclName":"country, state, region,...","countryCode":"UY","lng":-54,"fcodeName":"first-order administrative division","toponymName":"Departamento de Rocha","fcl":"A","name":"Departamento de Rocha","fcode":"ADM1","geonameId":3440771,"lat":-34,"adminName1":"Rocha","population":69938},{"countryName":"Uruguay","adminCode1":"12","fclName":"country, state, region,...","countryCode":"UY","lng":-57.3333333,"fcodeName":"first-order administrative division","toponymName":"Departamento de Río Negro","fcl":"A","name":"Departamento de Río Negro","fcode":"ADM1","geonameId":3440789,"lat":-32.75,"adminName1":"Río Negro","population":54255},{"countryName":"Uruguay","adminCode1":"15","fclName":"country, state, region,...","countryCode":"UY","lng":-57,"fcodeName":"first-order administrative division","toponymName":"Departamento de Salto","fcl":"A","name":"Departamento de Salto","fcode":"ADM1","geonameId":3440711,"lat":-31.4166667,"adminName1":"Salto","population":123793},{"countryName":"Uruguay","adminCode1":"16","fclName":"country, state, region,...","countryCode":"UY","lng":-56.6169444,"fcodeName":"first-order administrative division","toponymName":"Departamento de San José","fcl":"A","name":"Departamento de San José","fcode":"ADM1","geonameId":3440645,"lat":-34.455,"adminName1":"San José","population":103848},{"countryName":"Uruguay","adminCode1":"18","fclName":"country, state, region,...","countryCode":"UY","lng":-55.5,"fcodeName":"first-order administrative division","toponymName":"Departamento de Tacuarembó","fcl":"A","name":"Departamento de Tacuarembó","fcode":"ADM1","geonameId":3440033,"lat":-32.1666667,"adminName1":"Tacuarembó","population":91062},{"countryName":"Uruguay","adminCode1":"19","fclName":"country, state, region,...","countryCode":"UY","lng":-54.25,"fcodeName":"first-order administrative division","toponymName":"Departamento de Treinta y Tres","fcl":"A","name":"Departamento de Treinta y Tres","fcode":"ADM1","geonameId":3439780,"lat":-33,"adminName1":"Treinta y Tres","population":49324},{"countryName":"Uruguay","adminCode1":"07","fclName":"country, state, region,...","countryCode":"UY","lng":-55.9166667,"fcodeName":"first-order administrative division","toponymName":"Departamento de Florida","fcl":"A","name":"Florida","fcode":"ADM1","geonameId":3442584,"lat":-33.8333333,"adminName1":"Florida","population":68334},{"countryName":"Uruguay","adminCode1":"08","fclName":"country, state, region,...","countryCode":"UY","lng":-55,"fcodeName":"first-order administrative division","toponymName":"Departamento de Lavalleja","fcl":"A","name":"Lavalleja","fcode":"ADM1","geonameId":3442007,"lat":-34,"adminName1":"Lavalleja","population":60889},{"countryName":"Uruguay","adminCode1":"09","fclName":"country, state, region,...","countryCode":"UY","lng":-54.9166667,"fcodeName":"first-order administrative division","toponymName":"Departamento de Maldonado","fcl":"A","name":"Maldonado","fcode":"ADM1","geonameId":3441890,"lat":-34.6666667,"adminName1":"Maldonado","population":142086},{"countryName":"Uruguay","adminCode1":"17","fclName":"country, state, region,...","countryCode":"UY","lng":-57.75,"fcodeName":"first-order administrative division","toponymName":"Departamento de Soriano","fcl":"A","name":"Soriano","fcode":"ADM1","geonameId":3440054,"lat":-33.5,"adminName1":"Soriano","population":84879}]}