{"totalResultsCount":21,"geonames":[{"countryName":"Bahamas","adminCode1":"24","fclName":"country, state, region,...","countryCode":"BS","lng":-74,"fcodeName":"first-order administrative division","toponymName":"Acklins and Crooked Islands District","fcl":"A","name":"Acklins and Crooked Islands District","fcode":"ADM1","geonameId":3572937,"lat":22.5833333,"adminName1":"Acklins and Crooked Islands","population":435},{"countryName":"Bahamas","adminCode1":"05","fclName":"country, state, region,...","countryCode":"BS","lng":-79.5,"fcodeName":"first-order administrative division","toponymName":"Bimini District","fcl":"A","name":"Bimini District","fcode":"ADM1","geonameId":3572807,"lat":25.9166667,"adminName1":"Bimini","population":1735},{"countryName":"Bahamas","adminCode1":"06","fclName":"country, state, region,...","countryCode":"BS","lng":-75.6166667,"fcodeName":"first-order administrative division","toponymName":"Cat Island District","fcl":"A","name":"Cat Island District","fcode":"ADM1","geonameId":3572678,"lat":24.4166667,"adminName1":"Cat Island","population":1606},{"countryName":"Bahamas","adminCode1":"10","fclName":"country, state, region,...","countryCode":"BS","lng":-76.4833333,"fcodeName":"first-order administrative division","toponymName":"Exuma District","fcl":"A","name":"Exuma District","fcode":"ADM1","geonameId":3572427,"lat":24.0333333,"adminName1":"Exuma","population":0},{"countryName":"Bahamas","adminCode1":"25","fclName":"country, state, region,...","countryCode":"BS","lng":-78.75,"fcodeName":"first-order administrative division","toponymName":"Freeport District","fcl":"A","name":"Freeport District","fcode":"ADM1","geonameId":3572374,"lat":26.6666667,"adminName1":"Freeport","population":0},{"countryName":"Bahamas","adminCode1":"26","fclName":"country, state, region,...","countryCode":"BS","lng":-78,"fcodeName":"first-order administrative division","toponymName":"Fresh Creek District","fcl":"A","name":"Fresh Creek District","fcode":"ADM1","geonameId":3572363,"lat":24.5833333,"adminName1":"Fresh Creek","population":0},{"countryName":"Bahamas","adminCode1":"27","fclName":"country, state, region,...","countryCode":"BS","lng":-76.5,"fcodeName":"first-order administrative division","toponymName":"Governor's Harbour District","fcl":"A","name":"Governor's Harbour District","fcode":"ADM1","geonameId":3572312,"lat":25.2,"adminName1":"Governor ºs Harbour","population":0},{"countryName":"Bahamas","adminCode1":"28","fclName":"country, state, region,...","countryCode":"BS","lng":-77.5,"fcodeName":"first-order administrative division","toponymName":"Green Turtle Cay District","fcl":"A","name":"Green Turtle Cay District","fcode":"ADM1","geonameId":3572271,"lat":26.8333333,"adminName1":"Green Turtle Cay","population":0},{"countryName":"Bahamas","adminCode1":"22","fclName":"country, state, region,...","countryCode":"BS","lng":-76.75,"fcodeName":"first-order administrative division","toponymName":"Harbour Island District","fcl":"A","name":"Harbour Island District","fcode":"ADM1","geonameId":3572238,"lat":25.5,"adminName1":"Harbour Island","population":1751},{"countryName":"Bahamas","adminCode1":"29","fclName":"country, state, region,...","countryCode":"BS","lng":-78.2,"fcodeName":"first-order administrative division","toponymName":"High Rock District","fcl":"A","name":"High Rock District","fcode":"ADM1","geonameId":3572188,"lat":27,"adminName1":"High Rock","population":0},{"countryName":"Bahamas","adminCode1":"13","fclName":"country, state, region,...","countryCode":"BS","lng":-73.4,"fcodeName":"first-order administrative division","toponymName":"Inagua District","fcl":"A","name":"Inagua District","fcode":"ADM1","geonameId":3572154,"lat":21.3666667,"adminName1":"Inagua","population":0},{"countryName":"Bahamas","adminCode1":"30","fclName":"country, state, region,...","countryCode":"BS","lng":-77.6666667,"fcodeName":"first-order administrative division","toponymName":"Kemps Bay District","fcl":"A","name":"Kemps Bay District","fcode":"ADM1","geonameId":3572109,"lat":24,"adminName1":"Kemps Bay","population":0},{"countryName":"Bahamas","adminCode1":"15","fclName":"country, state, region,...","countryCode":"BS","lng":-75.1,"fcodeName":"first-order administrative division","toponymName":"Long Island District","fcl":"A","name":"Long Island District","fcode":"ADM1","geonameId":3572005,"lat":23.3833333,"adminName1":"Long Island","population":2979},{"countryName":"Bahamas","adminCode1":"31","fclName":"country, state, region,...","countryCode":"BS","lng":-77.1666667,"fcodeName":"first-order administrative division","toponymName":"Marsh Harbour District","fcl":"A","name":"Marsh Harbour District","fcode":"ADM1","geonameId":3571912,"lat":26.4,"adminName1":"Marsh Harbour","population":0},{"countryName":"Bahamas","adminCode1":"16","fclName":"country, state, region,...","countryCode":"BS","lng":-72.9166667,"fcodeName":"first-order administrative division","toponymName":"Mayaguana District","fcl":"A","name":"Mayaguana District","fcode":"ADM1","geonameId":3571894,"lat":22.3666667,"adminName1":"Mayaguana","population":251},{"countryName":"Bahamas","adminCode1":"23","fclName":"country, state, region,...","countryCode":"BS","lng":-77.2833333,"fcodeName":"first-order administrative division","toponymName":"New Providence District","fcl":"A","name":"New Providence District","fcode":"ADM1","geonameId":3571815,"lat":25.0333333,"adminName1":"New Providence","population":228334},{"countryName":"Bahamas","adminCode1":"32","fclName":"country, state, region,...","countryCode":"BS","lng":-78,"fcodeName":"first-order administrative division","toponymName":"Nichollstown and Berry Islands District","fcl":"A","name":"Nichollstown and Berry Islands District","fcode":"ADM1","geonameId":3571809,"lat":25.3666667,"adminName1":"Nichollstown and Berry Islands","population":742},{"countryName":"Bahamas","adminCode1":"18","fclName":"country, state, region,...","countryCode":"BS","lng":-75.8333333,"fcodeName":"first-order administrative division","toponymName":"Ragged Island District","fcl":"A","name":"Ragged Island District","fcode":"ADM1","geonameId":3571629,"lat":22.75,"adminName1":"Ragged Island","population":70},{"countryName":"Bahamas","adminCode1":"33","fclName":"country, state, region,...","countryCode":"BS","lng":-76.3333333,"fcodeName":"first-order administrative division","toponymName":"Rock Sound District","fcl":"A","name":"Rock Sound District","fcode":"ADM1","geonameId":3571591,"lat":24.8333333,"adminName1":"Rock Sound","population":0},{"countryName":"Bahamas","adminCode1":"35","fclName":"country, state, region,...","countryCode":"BS","lng":-74.6666667,"fcodeName":"first-order administrative division","toponymName":"San Salvador and Rum Cay District","fcl":"A","name":"San Salvador and Rum Cay District","fcode":"ADM1","geonameId":3571493,"lat":23.85,"adminName1":"San Salvador and Rum Cay","population":1293},{"countryName":"Bahamas","adminCode1":"34","fclName":"country, state, region,...","countryCode":"BS","lng":-77.3666667,"fcodeName":"first-order administrative division","toponymName":"Sandy Point District","fcl":"A","name":"Sandy Point District","fcode":"ADM1","geonameId":3571495,"lat":26.1166667,"adminName1":"Sandy Point","population":0}]}