{"totalResultsCount":36,"geonames":[{"countryName":"Anguilla","adminCode1":"00","fclName":"city, village,...","countryCode":"AI","lng":-63.1,"fcodeName":"populated place","toponymName":"Bethel","fcl":"P","name":"Bethel","fcode":"PPL","geonameId":3573503,"lat":18.2,"adminName1":"","population":0},{"countryName":"Anguilla","adminCode1":"00","fclName":"city, village,...","countryCode":"AI","lng":-63,"fcodeName":"populated locality","toponymName":"Betty Hill","fcl":"P","name":"Betty Hill","fcode":"PPLL","geonameId":3573502,"lat":18.2166667,"adminName1":"","population":0},{"countryName":"Anguilla","adminCode1":"00","fclName":"city, village,...","countryCode":"AI","lng":-63.0833333,"fcodeName":"populated place","toponymName":"Blowing Point Village","fcl":"P","name":"Blowing Point Village","fcode":"PPL","geonameId":3573496,"lat":18.1666667,"adminName1":"","population":819},{"countryName":"Anguilla","adminCode1":"00","fclName":"city, village,...","countryCode":"AI","lng":-63.0166667,"fcodeName":"populated place","toponymName":"Cannifist","fcl":"P","name":"Cannifist","fcode":"PPL","geonameId":3573491,"lat":18.2333333,"adminName1":"","population":0},{"countryName":"Anguilla","adminCode1":"00","fclName":"city, village,...","countryCode":"AI","lng":-63.0333333,"fcodeName":"populated place","toponymName":"Cauls Bottom","fcl":"P","name":"Cauls Bottom","fcode":"PPL","geonameId":3573489,"lat":18.2166667,"adminName1":"","population":0},{"countryName":"Anguilla","adminCode1":"00","fclName":"city, village,...","countryCode":"AI","lng":-63,"fcodeName":"populated locality","toponymName":"Chalvilles","fcl":"P","name":"Chalvilles","fcode":"PPLL","geonameId":3573487,"lat":18.2333333,"adminName1":"","population":0},{"countryName":"Anguilla","adminCode1":"00","fclName":"city, village,...","countryCode":"AI","lng":-63.0666667,"fcodeName":"populated place","toponymName":"Crocus Hill","fcl":"P","name":"Crocus Hill","fcode":"PPL","geonameId":3573480,"lat":18.2166667,"adminName1":"","population":0},{"countryName":"Anguilla","adminCode1":"00","fclName":"city, village,...","countryCode":"AI","lng":-63.0166667,"fcodeName":"populated place","toponymName":"Deep Waters","fcl":"P","name":"Deep Waters","fcode":"PPL","geonameId":3573477,"lat":18.2333333,"adminName1":"","population":0},{"countryName":"Anguilla","adminCode1":"00","fclName":"city, village,...","countryCode":"AI","lng":-63,"fcodeName":"populated place","toponymName":"East End Village","fcl":"P","name":"East End Village","fcode":"PPL","geonameId":3573473,"lat":18.2333333,"adminName1":"","population":633},{"countryName":"Anguilla","adminCode1":"00","fclName":"city, village,...","countryCode":"AI","lng":-63.0666667,"fcodeName":"populated place","toponymName":"Ebenezer","fcl":"P","name":"Ebenezer","fcode":"PPL","geonameId":3573472,"lat":18.2166667,"adminName1":"","population":0},{"countryName":"Anguilla","adminCode1":"00","fclName":"city, village,...","countryCode":"AI","lng":-63.0666667,"fcodeName":"populated place","toponymName":"George Hill","fcl":"P","name":"George Hill","fcode":"PPL","geonameId":3573466,"lat":18.2,"adminName1":"","population":871},{"countryName":"Anguilla","adminCode1":"00","fclName":"city, village,...","countryCode":"AI","lng":-63.010196685791016,"fcodeName":"populated place","toponymName":"Island Harbour","fcl":"P","name":"Island Harbour","fcode":"PPL","geonameId":3573456,"lat":18.256007319763523,"adminName1":"","population":910},{"countryName":"Anguilla","adminCode1":"00","fclName":"city, village,...","countryCode":"AI","lng":-62.9833333,"fcodeName":"populated locality","toponymName":"Junks Hole","fcl":"P","name":"Junks Hole","fcode":"PPLL","geonameId":3573454,"lat":18.25,"adminName1":"","population":0},{"countryName":"Anguilla","adminCode1":"00","fclName":"city, village,...","countryCode":"AI","lng":-63.0333333,"fcodeName":"populated place","toponymName":"Little Dix","fcl":"P","name":"Little Dix","fcode":"PPL","geonameId":3573447,"lat":18.2333333,"adminName1":"","population":0},{"countryName":"Anguilla","adminCode1":"00","fclName":"city, village,...","countryCode":"AI","lng":-63.1166667,"fcodeName":"populated place","toponymName":"Long Bay Village","fcl":"P","name":"Long Bay Village","fcode":"PPL","geonameId":3573440,"lat":18.1833333,"adminName1":"","population":0},{"countryName":"Anguilla","adminCode1":"00","fclName":"city, village,...","countryCode":"AI","lng":-63.05,"fcodeName":"populated place","toponymName":"Long Ground","fcl":"P","name":"Long Ground","fcode":"PPL","geonameId":3573439,"lat":18.2,"adminName1":"","population":0},{"countryName":"Anguilla","adminCode1":"00","fclName":"city, village,...","countryCode":"AI","lng":-63.0166667,"fcodeName":"populated place","toponymName":"Long Path","fcl":"P","name":"Long Path","fcode":"PPL","geonameId":3573438,"lat":18.2166667,"adminName1":"","population":0},{"countryName":"Anguilla","adminCode1":"00","fclName":"city, village,...","countryCode":"AI","lng":-63.1,"fcodeName":"populated place","toponymName":"Lower South Hill","fcl":"P","name":"Lower South Hill","fcode":"PPL","geonameId":3573432,"lat":18.1833333,"adminName1":"","population":0},{"countryName":"Anguilla","adminCode1":"00","fclName":"city, village,...","countryCode":"AI","lng":-63.0333333,"fcodeName":"populated locality","toponymName":"Mahogany Tree","fcl":"P","name":"Mahogany Tree","fcode":"PPLL","geonameId":3573430,"lat":18.2,"adminName1":"","population":0},{"countryName":"Anguilla","adminCode1":"00","fclName":"city, village,...","countryCode":"AI","lng":-62.9833333,"fcodeName":"populated place","toponymName":"Mount Fortune","fcl":"P","name":"Mount Fortune","fcode":"PPL","geonameId":3573421,"lat":18.2333333,"adminName1":"","population":0},{"countryName":"Anguilla","adminCode1":"00","fclName":"city, village,...","countryCode":"AI","lng":-63.0666667,"fcodeName":"populated place","toponymName":"North Hill Village","fcl":"P","name":"North Hill Village","fcode":"PPL","geonameId":3573420,"lat":18.2,"adminName1":"","population":0},{"countryName":"Anguilla","adminCode1":"00","fclName":"city, village,...","countryCode":"AI","lng":-63.05,"fcodeName":"populated place","toponymName":"North Side","fcl":"P","name":"North Side","fcode":"PPL","geonameId":3573418,"lat":18.2166667,"adminName1":"","population":0},{"countryName":"Anguilla","adminCode1":"00","fclName":"city, village,...","countryCode":"AI","lng":-63.0333333,"fcodeName":"populated place","toponymName":"Rey Hill","fcl":"P","name":"Rey Hill","fcode":"PPL","geonameId":3573412,"lat":18.2,"adminName1":"","population":0},{"countryName":"Anguilla","adminCode1":"00","fclName":"city, village,...","countryCode":"AI","lng":-63.0833333,"fcodeName":"populated place","toponymName":"Sandy Ground Village","fcl":"P","name":"Sandy Ground Village","fcode":"PPL","geonameId":3573407,"lat":18.2,"adminName1":"","population":326},{"countryName":"Anguilla","adminCode1":"00","fclName":"city, village,...","countryCode":"AI","lng":-63.0166667,"fcodeName":"populated place","toponymName":"Shoal Bay Village","fcl":"P","name":"Shoal Bay Village","fcode":"PPL","geonameId":3573390,"lat":18.25,"adminName1":"","population":0},{"countryName":"Anguilla","adminCode1":"00","fclName":"city, village,...","countryCode":"AI","lng":-63.0833333,"fcodeName":"populated place","toponymName":"South Hill Village","fcl":"P","name":"South Hill Village","fcode":"PPL","geonameId":3573385,"lat":18.1833333,"adminName1":"","population":0},{"countryName":"Anguilla","adminCode1":"00","fclName":"city, village,...","countryCode":"AI","lng":-63.0333333,"fcodeName":"populated place","toponymName":"Stoney Ground","fcl":"P","name":"Stoney Ground","fcode":"PPL","geonameId":3573380,"lat":18.2166667,"adminName1":"","population":1225},{"countryName":"Anguilla","adminCode1":"00","fclName":"city, village,...","countryCode":"AI","lng":-62.9833333,"fcodeName":"populated place","toponymName":"The Copse","fcl":"P","name":"The Copse","fcode":"PPL","geonameId":3573379,"lat":18.2166667,"adminName1":"","population":0},{"countryName":"Anguilla","adminCode1":"00","fclName":"city, village,...","countryCode":"AI","lng":-63.0333333,"fcodeName":"populated place","toponymName":"The Farrington","fcl":"P","name":"The Farrington","fcode":"PPL","geonameId":3573378,"lat":18.2,"adminName1":"","population":700},{"countryName":"Anguilla","adminCode1":"00","fclName":"city, village,...","countryCode":"AI","lng":-63.0333333,"fcodeName":"populated locality","toponymName":"The Forest","fcl":"P","name":"The Forest","fcode":"PPLL","geonameId":3573377,"lat":18.2,"adminName1":"","population":0},{"countryName":"Anguilla","adminCode1":"00","fclName":"city, village,...","countryCode":"AI","lng":-63.0333333,"fcodeName":"populated place","toponymName":"The Quarter","fcl":"P","name":"The Quarter","fcode":"PPL","geonameId":3573375,"lat":18.2,"adminName1":"","population":0},{"countryName":"Anguilla","adminCode1":"00","fclName":"city, village,...","countryCode":"AI","lng":-63.05783271789551,"fcodeName":"capital of a political entity","toponymName":"The Valley","fcl":"P","name":"The Valley","fcode":"PPLC","geonameId":3573374,"lat":18.2170409282136,"adminName1":"","population":1378},{"countryName":"Anguilla","adminCode1":"00","fclName":"city, village,...","countryCode":"AI","lng":-63.0333333,"fcodeName":"populated place","toponymName":"Wattices","fcl":"P","name":"Wattices","fcode":"PPL","geonameId":3573369,"lat":18.2166667,"adminName1":"","population":0},{"countryName":"Anguilla","adminCode1":"00","fclName":"city, village,...","countryCode":"AI","lng":-63.0166667,"fcodeName":"populated place","toponymName":"Welches Hill","fcl":"P","name":"Welches Hill","fcode":"PPL","geonameId":3573368,"lat":18.2333333,"adminName1":"","population":0},{"countryName":"Anguilla","adminCode1":"00","fclName":"city, village,...","countryCode":"AI","lng":-63.15,"fcodeName":"populated place","toponymName":"West End Village","fcl":"P","name":"West End Village","fcode":"PPL","geonameId":3573364,"lat":18.1666667,"adminName1":"","population":0},{"countryName":"Anguilla","adminCode1":"00","fclName":"city, village,...","countryCode":"AI","lng":-63,"fcodeName":"populated place","toponymName":"White Hill","fcl":"P","name":"White Hill","fcode":"PPL","geonameId":3573362,"lat":18.25,"adminName1":"","population":0}]}