{"totalResultsCount":16,"geonames":[{"countryName":"Trinidad and Tobago","adminCode1":"01","fclName":"country, state, region,...","countryCode":"TT","lng":-61.2833333,"fcodeName":"first-order administrative division","toponymName":"Arima","fcl":"A","numberOfChildren":1,"name":"Arima","fcode":"ADM1","geonameId":3575052,"lat":10.6333333,"adminName1":"Arima","population":0},{"countryName":"Trinidad and Tobago","adminCode1":"CHA","fclName":"country, state, region,...","countryCode":"TT","lng":-61.4150333404541,"fcodeName":"first-order administrative division","toponymName":"Chaguanas","fcl":"A","name":"Chaguanas","fcode":"ADM1","geonameId":7521937,"lat":10.517180563630447,"adminName1":"Chaguanas","population":0},{"countryName":"Trinidad and Tobago","adminCode1":"CTT","fclName":"country, state, region,...","countryCode":"TT","lng":-61.4511680603027,"fcodeName":"first-order administrative division","toponymName":"Couva-Tabaquite-Talparo","fcl":"A","name":"Couva-Tabaquite-Talparo","fcode":"ADM1","geonameId":7521938,"lat":10.4179234835775,"adminName1":"Couva-Tabaquite-Talparo","population":162779},{"countryName":"Trinidad and Tobago","adminCode1":"DMN","fclName":"country, state, region,...","countryCode":"TT","lng":-61.5341663360596,"fcodeName":"first-order administrative division","toponymName":"Diego Martin","fcl":"A","name":"Diego Martin","fcode":"ADM1","geonameId":7521939,"lat":10.7005025399934,"adminName1":"Diego Martin","population":105720},{"countryName":"Trinidad and Tobago","adminCode1":"ETO","fclName":"country, state, region,...","countryCode":"TT","lng":-60.58419227600098,"fcodeName":"first-order administrative division","toponymName":"Eastern Tobago","fcl":"A","name":"Eastern Tobago","fcode":"ADM1","geonameId":7521940,"lat":11.249880825004876,"adminName1":"Eastern Tobago","population":0},{"countryName":"Trinidad and Tobago","adminCode1":"03","fclName":"country, state, region,...","countryCode":"TT","lng":-61.0833333,"fcodeName":"first-order administrative division","toponymName":"Mayaro","fcl":"A","numberOfChildren":2,"name":"Mayaro","fcode":"ADM1","geonameId":3574155,"lat":10.1666667,"adminName1":"Mayaro","population":33480},{"countryName":"Trinidad and Tobago","adminCode1":"PED","fclName":"country, state, region,...","countryCode":"TT","lng":-61.4652442932129,"fcodeName":"first-order administrative division","toponymName":"Penal/Debe","fcl":"A","name":"Penal/Debe","fcode":"ADM1","geonameId":7521941,"lat":10.167784443381,"adminName1":"Penal/Debe","population":83609},{"countryName":"Trinidad and Tobago","adminCode1":"PTF","fclName":"country, state, region,...","countryCode":"TT","lng":-61.68196678161621,"fcodeName":"first-order administrative division","toponymName":"Point Fortin","fcl":"A","name":"Point Fortin","fcode":"ADM1","geonameId":7521943,"lat":10.184004713490493,"adminName1":"Point Fortin","population":0},{"countryName":"Trinidad and Tobago","adminCode1":"05","fclName":"country, state, region,...","countryCode":"TT","lng":-61.5166667,"fcodeName":"first-order administrative division","toponymName":"Port-of-Spain","fcl":"A","name":"Port-of-Spain","fcode":"ADM1","geonameId":3573891,"lat":10.65,"adminName1":"Port-of-Spain","population":49657},{"countryName":"Trinidad and Tobago","adminCode1":"PRT","fclName":"country, state, region,...","countryCode":"TT","lng":-61.3818168640137,"fcodeName":"first-order administrative division","toponymName":"Princes Town","fcl":"A","name":"Princes Town","fcode":"ADM1","geonameId":7521942,"lat":10.2674584494969,"adminName1":"Princes Town","population":91947},{"countryName":"Trinidad and Tobago","adminCode1":"10","fclName":"country, state, region,...","countryCode":"TT","lng":-61.4666667,"fcodeName":"first-order administrative division","toponymName":"San Fernando","fcl":"A","name":"San Fernando","fcode":"ADM1","geonameId":3573739,"lat":10.2833333,"adminName1":"San Fernando","population":56380},{"countryName":"Trinidad and Tobago","adminCode1":"SJL","fclName":"country, state, region,...","countryCode":"TT","lng":-61.4975166320801,"fcodeName":"first-order administrative division","toponymName":"San Juan/Laventille","fcl":"A","name":"San Juan/Laventille","fcode":"ADM1","geonameId":7521946,"lat":10.6496423511797,"adminName1":"San Juan/Laventille","population":157295},{"countryName":"Trinidad and Tobago","adminCode1":"SGE","fclName":"country, state, region,...","countryCode":"TT","lng":-61.1177158355713,"fcodeName":"first-order administrative division","toponymName":"Sangre Grande","fcl":"A","name":"Sangre Grande","fcode":"ADM1","geonameId":7521944,"lat":10.583502980363,"adminName1":"Sangre Grande","population":64343},{"countryName":"Trinidad and Tobago","adminCode1":"SIP","fclName":"country, state, region,...","countryCode":"TT","lng":-61.5012073516846,"fcodeName":"first-order administrative division","toponymName":"Siparia","fcl":"A","name":"Siparia","fcode":"ADM1","geonameId":7521945,"lat":10.1338205869006,"adminName1":"Siparia","population":81917},{"countryName":"Trinidad and Tobago","adminCode1":"11","fclName":"country, state, region,...","countryCode":"TT","lng":-60.6666667,"fcodeName":"first-order administrative division","toponymName":"Tobago","fcl":"A","numberOfChildren":7,"name":"Tobago","fcode":"ADM1","geonameId":3573606,"lat":11.25,"adminName1":"Tobago","population":0},{"countryName":"Trinidad and Tobago","adminCode1":"TUP","fclName":"country, state, region,...","countryCode":"TT","lng":-61.3818168640137,"fcodeName":"first-order administrative division","toponymName":"Tunapuna/Piarco","fcl":"A","name":"Tunapuna/Piarco","fcode":"ADM1","geonameId":7521947,"lat":10.6338680617715,"adminName1":"Tunapuna/Piarco","population":203975}]}