{"totalResultsCount":11,"geonames":[{"countryName":"Turks and Caicos Islands","adminCode1":"00","fclName":"city, village,...","countryCode":"TC","lng":-71.2166667,"fcodeName":"populated place","toponymName":"Balfour Town","fcl":"P","name":"Balfour Town","fcode":"PPL","geonameId":3577054,"lat":21.3166667,"adminName1":"","population":0},{"countryName":"Turks and Caicos Islands","adminCode1":"00","fclName":"city, village,...","countryCode":"TC","lng":-71.7166667,"fcodeName":"populated place","toponymName":"Bambarra","fcl":"P","name":"Bambarra","fcode":"PPL","geonameId":3577053,"lat":21.8166667,"adminName1":"","population":0},{"countryName":"Turks and Caicos Islands","adminCode1":"00","fclName":"city, village,...","countryCode":"TC","lng":-71.5333333,"fcodeName":"populated place","toponymName":"Cockburn Harbour","fcl":"P","name":"Cockburn Harbour","fcode":"PPL","geonameId":3577027,"lat":21.4833333,"adminName1":"","population":751},{"countryName":"Turks and Caicos Islands","adminCode1":"00","fclName":"city, village,...","countryCode":"TC","lng":-71.141881942749,"fcodeName":"capital of a political entity","toponymName":"Cockburn Town","fcl":"P","name":"Cockburn Town","fcode":"PPLC","geonameId":3576994,"lat":21.4612165856583,"adminName1":"","population":3720},{"countryName":"Turks and Caicos Islands","adminCode1":"00","fclName":"city, village,...","countryCode":"TC","lng":-71.7833333,"fcodeName":"populated place","toponymName":"Conch Bar","fcl":"P","name":"Conch Bar","fcode":"PPL","geonameId":3577025,"lat":21.8333333,"adminName1":"","population":0},{"countryName":"Turks and Caicos Islands","adminCode1":"00","fclName":"city, village,...","countryCode":"TC","lng":-72.25,"fcodeName":"populated place","toponymName":"Five Cays Settlement","fcl":"P","name":"Five Cays Settlement","fcode":"PPL","geonameId":3577004,"lat":21.75,"adminName1":"","population":0},{"countryName":"Turks and Caicos Islands","adminCode1":"00","fclName":"city, village,...","countryCode":"TC","lng":-71.9333333,"fcodeName":"populated place","toponymName":"Greenwich","fcl":"P","name":"Greenwich","fcode":"PPL","geonameId":3576991,"lat":21.95,"adminName1":"","population":0},{"countryName":"Turks and Caicos Islands","adminCode1":"00","fclName":"city, village,...","countryCode":"TC","lng":-72.0333333,"fcodeName":"populated place","toponymName":"Kew","fcl":"P","name":"Kew","fcode":"PPL","geonameId":3576979,"lat":21.9,"adminName1":"","population":0},{"countryName":"Turks and Caicos Islands","adminCode1":"00","fclName":"city, village,...","countryCode":"TC","lng":-71.6833333,"fcodeName":"populated place","toponymName":"Lorimers","fcl":"P","name":"Lorimers","fcode":"PPL","geonameId":3576968,"lat":21.7833333,"adminName1":"","population":0},{"countryName":"Turks and Caicos Islands","adminCode1":"00","fclName":"city, village,...","countryCode":"TC","lng":-72.0333333,"fcodeName":"populated place","toponymName":"Sandy Point","fcl":"P","name":"Sandy Point","fcode":"PPL","geonameId":3576938,"lat":21.95,"adminName1":"","population":0},{"countryName":"Turks and Caicos Islands","adminCode1":"00","fclName":"city, village,...","countryCode":"TC","lng":-71.9666667,"fcodeName":"populated place","toponymName":"Whitby","fcl":"P","name":"Whitby","fcode":"PPL","geonameId":3576905,"lat":21.95,"adminName1":"","population":0}]}