{"totalResultsCount":17,"geonames":[{"countryName":"Saint Barthélemy","adminCode1":"00","fclName":"city, village,...","countryCode":"BL","lng":-62.85,"fcodeName":"populated locality","toponymName":"Anse des Cayes","fcl":"P","name":"Anse des Cayes","fcode":"PPLL","geonameId":3579787,"lat":17.9166667,"adminName1":"","population":0},{"countryName":"Saint Barthélemy","adminCode1":"00","fclName":"city, village,...","countryCode":"BL","lng":-62.8575038909912,"fcodeName":"populated place","toponymName":"Anse des Flamands","fcl":"P","name":"Anse des Flamands","fcode":"PPL","geonameId":3579785,"lat":17.9177377366477,"adminName1":"","population":0},{"countryName":"Saint Barthélemy","adminCode1":"00","fclName":"city, village,...","countryCode":"BL","lng":-62.85,"fcodeName":"populated place","toponymName":"Colombier","fcl":"P","name":"Colombier","fcode":"PPL","geonameId":3579485,"lat":17.9166667,"adminName1":"","population":0},{"countryName":"Saint Barthélemy","adminCode1":"00","fclName":"city, village,...","countryCode":"BL","lng":-62.85,"fcodeName":"populated place","toponymName":"Corossol","fcl":"P","name":"Corossol","fcode":"PPL","geonameId":3579470,"lat":17.9,"adminName1":"","population":0},{"countryName":"Saint Barthélemy","adminCode1":"00","fclName":"city, village,...","countryCode":"BL","lng":-62.805233001709,"fcodeName":"populated place","toponymName":"Grand Cul-de-Sac","fcl":"P","name":"Grand Cul-de-Sac","fcode":"PPL","geonameId":3579243,"lat":17.907079764138,"adminName1":"","population":0},{"countryName":"Saint Barthélemy","adminCode1":"00","fclName":"city, village,...","countryCode":"BL","lng":-62.8,"fcodeName":"populated place","toponymName":"Grand Fond","fcl":"P","name":"Grand Fond","fcode":"PPL","geonameId":3579199,"lat":17.8833333,"adminName1":"","population":0},{"countryName":"Saint Barthélemy","adminCode1":"00","fclName":"city, village,...","countryCode":"BL","lng":-62.8497791290283,"fcodeName":"capital of a political entity","toponymName":"Gustavia","fcl":"P","name":"Gustavia","fcode":"PPLC","geonameId":3579132,"lat":17.8961761178488,"adminName1":"","population":5988},{"countryName":"Saint Barthélemy","adminCode1":"00","fclName":"city, village,...","countryCode":"BL","lng":-62.8166667,"fcodeName":"populated place","toponymName":"La Saline","fcl":"P","name":"La Saline","fcode":"PPL","geonameId":3579000,"lat":17.8833333,"adminName1":"","population":0},{"countryName":"Saint Barthélemy","adminCode1":"00","fclName":"city, village,...","countryCode":"BL","lng":-62.8333333,"fcodeName":"populated place","toponymName":"Le Gouverneur","fcl":"P","name":"Le Gouverneur","fcode":"PPL","geonameId":3578974,"lat":17.8666667,"adminName1":"","population":0},{"countryName":"Saint Barthélemy","adminCode1":"00","fclName":"city, village,...","countryCode":"BL","lng":-62.8333333,"fcodeName":"populated locality","toponymName":"Lurin","fcl":"P","name":"Lurin","fcode":"PPLL","geonameId":3578903,"lat":17.8833333,"adminName1":"","population":0},{"countryName":"Saint Barthélemy","adminCode1":"00","fclName":"city, village,...","countryCode":"BL","lng":-62.8166667,"fcodeName":"populated place","toponymName":"Marigot","fcl":"P","name":"Marigot","fcode":"PPL","geonameId":3578852,"lat":17.9166667,"adminName1":"","population":0},{"countryName":"Saint Barthélemy","adminCode1":"00","fclName":"city, village,...","countryCode":"BL","lng":-62.7833333,"fcodeName":"populated locality","toponymName":"Petit Cul de Sac","fcl":"P","name":"Petit Cul de Sac","fcode":"PPLL","geonameId":3578678,"lat":17.9,"adminName1":"","population":0},{"countryName":"Saint Barthélemy","adminCode1":"00","fclName":"city, village,...","countryCode":"BL","lng":-62.85,"fcodeName":"populated place","toponymName":"Public","fcl":"P","name":"Public","fcode":"PPL","geonameId":3578562,"lat":17.9,"adminName1":"","population":0},{"countryName":"Saint Barthélemy","adminCode1":"00","fclName":"city, village,...","countryCode":"BL","lng":-62.8225708007812,"fcodeName":"populated place","toponymName":"Quartier de Lorient","fcl":"P","name":"Quartier de Lorient","fcode":"PPL","geonameId":3578558,"lat":17.9051604443024,"adminName1":"","population":0},{"countryName":"Saint Barthélemy","adminCode1":"00","fclName":"city, village,...","countryCode":"BL","lng":-62.85,"fcodeName":"populated place","toponymName":"Quartier du Roi","fcl":"P","name":"Quartier du Roi","fcode":"PPL","geonameId":3578555,"lat":17.9,"adminName1":"","population":0},{"countryName":"Saint Barthélemy","adminCode1":"00","fclName":"city, village,...","countryCode":"BL","lng":-62.8369903564453,"fcodeName":"populated place","toponymName":"Saint-Jean","fcl":"P","name":"Saint-Jean","fcode":"PPL","geonameId":3578433,"lat":17.8987081104434,"adminName1":"","population":0},{"countryName":"Saint Barthélemy","adminCode1":"00","fclName":"city, village,...","countryCode":"BL","lng":-62.8,"fcodeName":"populated place","toponymName":"Toiny","fcl":"P","name":"Toiny","fcode":"PPL","geonameId":3578337,"lat":17.9,"adminName1":"","population":0}]}