{"totalResultsCount":14,"geonames":[{"countryName":"El Salvador","adminCode1":"01","fclName":"country, state, region,...","countryCode":"SV","lng":-89.9166667,"fcodeName":"first-order administrative division","toponymName":"Departamento de Ahuachapán","fcl":"A","numberOfChildren":2,"name":"Departamento de Ahuachapán","fcode":"ADM1","geonameId":3587425,"lat":13.8666667,"adminName1":"Ahuachapán","population":0},{"countryName":"El Salvador","adminCode1":"02","fclName":"country, state, region,...","countryCode":"SV","lng":-88.75,"fcodeName":"first-order administrative division","toponymName":"Departamento de Cabañas","fcl":"A","numberOfChildren":2,"name":"Departamento de Cabañas","fcode":"ADM1","geonameId":3587217,"lat":13.8666667,"adminName1":"Cabañas","population":0},{"countryName":"El Salvador","adminCode1":"03","fclName":"country, state, region,...","countryCode":"SV","lng":-89.0166667,"fcodeName":"first-order administrative division","toponymName":"Departamento de Chalatenango","fcl":"A","numberOfChildren":3,"name":"Departamento de Chalatenango","fcode":"ADM1","geonameId":3587090,"lat":14.1333333,"adminName1":"Chalatenango","population":0},{"countryName":"El Salvador","adminCode1":"04","fclName":"country, state, region,...","countryCode":"SV","lng":-89.0333333,"fcodeName":"first-order administrative division","toponymName":"Departamento de Cuscatlán","fcl":"A","numberOfChildren":2,"name":"Departamento de Cuscatlán","fcode":"ADM1","geonameId":3586831,"lat":13.8333333,"adminName1":"Cuscatlán","population":0},{"countryName":"El Salvador","adminCode1":"05","fclName":"country, state, region,...","countryCode":"SV","lng":-89.3833333,"fcodeName":"first-order administrative division","toponymName":"Departamento de La Libertad","fcl":"A","numberOfChildren":3,"name":"Departamento de La Libertad","fcode":"ADM1","geonameId":3585155,"lat":13.75,"adminName1":"La Libertad","population":0},{"countryName":"El Salvador","adminCode1":"06","fclName":"country, state, region,...","countryCode":"SV","lng":-88.9833333,"fcodeName":"first-order administrative division","toponymName":"Departamento de La Paz","fcl":"A","numberOfChildren":4,"name":"Departamento de La Paz","fcode":"ADM1","geonameId":3585087,"lat":13.4666667,"adminName1":"La Paz","population":0},{"countryName":"El Salvador","adminCode1":"07","fclName":"country, state, region,...","countryCode":"SV","lng":-87.9,"fcodeName":"first-order administrative division","toponymName":"Departamento de La Unión","fcl":"A","numberOfChildren":2,"name":"Departamento de La Unión","fcode":"ADM1","geonameId":3584767,"lat":13.55,"adminName1":"La Unión","population":0},{"countryName":"El Salvador","adminCode1":"08","fclName":"country, state, region,...","countryCode":"SV","lng":-88.1,"fcodeName":"first-order administrative division","toponymName":"Departamento de Morazán","fcl":"A","numberOfChildren":3,"name":"Departamento de Morazán","fcode":"ADM1","geonameId":3584317,"lat":13.8,"adminName1":"Morazán","population":0},{"countryName":"El Salvador","adminCode1":"09","fclName":"country, state, region,...","countryCode":"SV","lng":-88.2833333,"fcodeName":"first-order administrative division","toponymName":"Departamento de San Miguel","fcl":"A","numberOfChildren":3,"name":"Departamento de San Miguel","fcode":"ADM1","geonameId":3583462,"lat":13.5333333,"adminName1":"San Miguel","population":0},{"countryName":"El Salvador","adminCode1":"10","fclName":"country, state, region,...","countryCode":"SV","lng":-89.1833333,"fcodeName":"first-order administrative division","toponymName":"Departamento de San Salvador","fcl":"A","numberOfChildren":3,"name":"Departamento de San Salvador","fcode":"ADM1","geonameId":3583360,"lat":13.7833333,"adminName1":"San Salvador","population":0},{"countryName":"El Salvador","adminCode1":"12","fclName":"country, state, region,...","countryCode":"SV","lng":-88.75,"fcodeName":"first-order administrative division","toponymName":"Departamento de San Vicente","fcl":"A","numberOfChildren":2,"name":"Departamento de San Vicente","fcode":"ADM1","geonameId":3583176,"lat":13.5166667,"adminName1":"San Vicente","population":0},{"countryName":"El Salvador","adminCode1":"11","fclName":"country, state, region,...","countryCode":"SV","lng":-89.5833333,"fcodeName":"first-order administrative division","toponymName":"Departamento de Santa Ana","fcl":"A","numberOfChildren":3,"name":"Departamento de Santa Ana","fcode":"ADM1","geonameId":3583332,"lat":14.1,"adminName1":"Santa Ana","population":0},{"countryName":"El Salvador","adminCode1":"13","fclName":"country, state, region,...","countryCode":"SV","lng":-89.7,"fcodeName":"first-order administrative division","toponymName":"Departamento de Sonsonate","fcl":"A","numberOfChildren":3,"name":"Departamento de Sonsonate","fcode":"ADM1","geonameId":3583101,"lat":13.7,"adminName1":"Sonsonate","population":0},{"countryName":"El Salvador","adminCode1":"14","fclName":"country, state, region,...","countryCode":"SV","lng":-88.5333333,"fcodeName":"first-order administrative division","toponymName":"Departamento de Usulután","fcl":"A","numberOfChildren":4,"name":"Departamento de Usulután","fcode":"ADM1","geonameId":3582882,"lat":13.4333333,"adminName1":"Usulután","population":0}]}