{"totalResultsCount":22,"geonames":[{"countryName":"Guatemala","adminCode1":"01","fclName":"country, state, region,...","countryCode":"GT","lng":-90,"fcodeName":"first-order administrative division","toponymName":"Departamento de Alta Verapaz","fcl":"A","numberOfChildren":14,"name":"Departamento de Alta Verapaz","fcode":"ADM1","geonameId":3599773,"lat":15.6666667,"adminName1":"Alta Verapaz","population":0},{"countryName":"Guatemala","adminCode1":"02","fclName":"country, state, region,...","countryCode":"GT","lng":-90.3333333,"fcodeName":"first-order administrative division","toponymName":"Departamento de Baja Verapaz","fcl":"A","numberOfChildren":8,"name":"Departamento de Baja Verapaz","fcode":"ADM1","geonameId":3599602,"lat":15.0833333,"adminName1":"Baja Verapaz","population":0},{"countryName":"Guatemala","adminCode1":"03","fclName":"country, state, region,...","countryCode":"GT","lng":-90.9166667,"fcodeName":"first-order administrative division","toponymName":"Departamento de Chimaltenango","fcl":"A","numberOfChildren":16,"name":"Departamento de Chimaltenango","fcode":"ADM1","geonameId":3598571,"lat":14.6666667,"adminName1":"Chimaltenango","population":0},{"countryName":"Guatemala","adminCode1":"04","fclName":"country, state, region,...","countryCode":"GT","lng":-89.4166667,"fcodeName":"first-order administrative division","toponymName":"Departamento de Chiquimula","fcl":"A","numberOfChildren":11,"name":"Departamento de Chiquimula","fcode":"ADM1","geonameId":3598464,"lat":14.6666667,"adminName1":"Chiquimula","population":0},{"countryName":"Guatemala","adminCode1":"05","fclName":"country, state, region,...","countryCode":"GT","lng":-90,"fcodeName":"first-order administrative division","toponymName":"Departamento de El Progreso","fcl":"A","numberOfChildren":8,"name":"Departamento de El Progreso","fcode":"ADM1","geonameId":3596416,"lat":14.8333333,"adminName1":"El Progreso","population":0},{"countryName":"Guatemala","adminCode1":"06","fclName":"country, state, region,...","countryCode":"GT","lng":-91,"fcodeName":"first-order administrative division","toponymName":"Departamento de Escuintla","fcl":"A","numberOfChildren":13,"name":"Departamento de Escuintla","fcode":"ADM1","geonameId":3595802,"lat":14.1666667,"adminName1":"Escuintla","population":0},{"countryName":"Guatemala","adminCode1":"07","fclName":"country, state, region,...","countryCode":"GT","lng":-90.5,"fcodeName":"first-order administrative division","toponymName":"Departamento de Guatemala","fcl":"A","numberOfChildren":17,"name":"Departamento de Guatemala","fcode":"ADM1","geonameId":3595530,"lat":14.6666667,"adminName1":"Guatemala","population":0},{"countryName":"Guatemala","adminCode1":"08","fclName":"country, state, region,...","countryCode":"GT","lng":-91.5833333,"fcodeName":"first-order administrative division","toponymName":"Departamento de Huehuetenango","fcl":"A","numberOfChildren":31,"name":"Departamento de Huehuetenango","fcode":"ADM1","geonameId":3595415,"lat":15.6666667,"adminName1":"Huehuetenango","population":0},{"countryName":"Guatemala","adminCode1":"09","fclName":"country, state, region,...","countryCode":"GT","lng":-89,"fcodeName":"first-order administrative division","toponymName":"Departamento de Izabal","fcl":"A","numberOfChildren":5,"name":"Departamento de Izabal","fcode":"ADM1","geonameId":3595259,"lat":15.5,"adminName1":"Izabal","population":0},{"countryName":"Guatemala","adminCode1":"10","fclName":"country, state, region,...","countryCode":"GT","lng":-89.9166667,"fcodeName":"first-order administrative division","toponymName":"Departamento de Jalapa","fcl":"A","numberOfChildren":7,"name":"Departamento de Jalapa","fcode":"ADM1","geonameId":3595236,"lat":14.5833333,"adminName1":"Jalapa","population":0},{"countryName":"Guatemala","adminCode1":"11","fclName":"country, state, region,...","countryCode":"GT","lng":-89.8333333,"fcodeName":"first-order administrative division","toponymName":"Departamento de Jutiapa","fcl":"A","numberOfChildren":17,"name":"Departamento de Jutiapa","fcode":"ADM1","geonameId":3595067,"lat":14.1666667,"adminName1":"Jutiapa","population":0},{"countryName":"Guatemala","adminCode1":"13","fclName":"country, state, region,...","countryCode":"GT","lng":-91.6666667,"fcodeName":"first-order administrative division","toponymName":"Departamento de Quetzaltenango","fcl":"A","numberOfChildren":24,"name":"Departamento de Quetzaltenango","fcode":"ADM1","geonameId":3590978,"lat":14.75,"adminName1":"Quetzaltenango","population":667139},{"countryName":"Guatemala","adminCode1":"15","fclName":"country, state, region,...","countryCode":"GT","lng":-91.8333333,"fcodeName":"first-order administrative division","toponymName":"Departamento de Retalhuleu","fcl":"A","numberOfChildren":9,"name":"Departamento de Retalhuleu","fcode":"ADM1","geonameId":3590857,"lat":14.3333333,"adminName1":"Retalhuleu","population":0},{"countryName":"Guatemala","adminCode1":"16","fclName":"country, state, region,...","countryCode":"GT","lng":-90.75,"fcodeName":"first-order administrative division","toponymName":"Departamento de Sacatepéquez","fcl":"A","numberOfChildren":16,"name":"Departamento de Sacatepéquez","fcode":"ADM1","geonameId":3590686,"lat":14.5833333,"adminName1":"Sacatepéquez","population":0},{"countryName":"Guatemala","adminCode1":"17","fclName":"country, state, region,...","countryCode":"GT","lng":-91.9166667,"fcodeName":"first-order administrative division","toponymName":"Departamento de San Marcos","fcl":"A","numberOfChildren":29,"name":"Departamento de San Marcos","fcode":"ADM1","geonameId":3589801,"lat":15,"adminName1":"San Marcos","population":0},{"countryName":"Guatemala","adminCode1":"18","fclName":"country, state, region,...","countryCode":"GT","lng":-90.3,"fcodeName":"first-order administrative division","toponymName":"Departamento de Santa Rosa","fcl":"A","numberOfChildren":14,"name":"Departamento de Santa Rosa","fcode":"ADM1","geonameId":3589172,"lat":14.1666667,"adminName1":"Santa Rosa","population":0},{"countryName":"Guatemala","adminCode1":"19","fclName":"country, state, region,...","countryCode":"GT","lng":-91.25,"fcodeName":"first-order administrative division","toponymName":"Departamento de Sololá","fcl":"A","numberOfChildren":19,"name":"Departamento de Sololá","fcode":"ADM1","geonameId":3588697,"lat":14.6666667,"adminName1":"Sololá","population":0},{"countryName":"Guatemala","adminCode1":"20","fclName":"country, state, region,...","countryCode":"GT","lng":-91.3333333,"fcodeName":"first-order administrative division","toponymName":"Departamento de Suchitepéquez","fcl":"A","numberOfChildren":20,"name":"Departamento de Suchitepéquez","fcode":"ADM1","geonameId":3588668,"lat":14.4166667,"adminName1":"Suchitepéquez","population":0},{"countryName":"Guatemala","adminCode1":"21","fclName":"country, state, region,...","countryCode":"GT","lng":-91.3333333,"fcodeName":"first-order administrative division","toponymName":"Departamento de Totonicapán","fcl":"A","numberOfChildren":8,"name":"Departamento de Totonicapán","fcode":"ADM1","geonameId":3588257,"lat":15,"adminName1":"Totonicapán","population":0},{"countryName":"Guatemala","adminCode1":"22","fclName":"country, state, region,...","countryCode":"GT","lng":-89.5,"fcodeName":"first-order administrative division","toponymName":"Departamento de Zacapa","fcl":"A","numberOfChildren":10,"name":"Departamento de Zacapa","fcode":"ADM1","geonameId":3587586,"lat":15,"adminName1":"Zacapa","population":0},{"countryName":"Guatemala","adminCode1":"12","fclName":"country, state, region,...","countryCode":"GT","lng":-90,"fcodeName":"first-order administrative division","toponymName":"Departamento del Petén","fcl":"A","numberOfChildren":12,"name":"Departamento del Petén","fcode":"ADM1","geonameId":3591410,"lat":16.8333333,"adminName1":"Petén","population":0},{"countryName":"Guatemala","adminCode1":"14","fclName":"country, state, region,...","countryCode":"GT","lng":-90.9166667,"fcodeName":"first-order administrative division","toponymName":"Departamento del Quiché","fcl":"A","numberOfChildren":17,"name":"Departamento del Quiché","fcode":"ADM1","geonameId":3590964,"lat":15.5,"adminName1":"Quiché","population":0}]}