{"totalResultsCount":18,"geonames":[{"countryName":"Honduras","adminCode1":"01","fclName":"country, state, region,...","countryCode":"HN","lng":-87,"fcodeName":"first-order administrative division","toponymName":"Departamento de Atlántida","fcl":"A","numberOfChildren":7,"name":"Departamento de Atlántida","fcode":"ADM1","geonameId":3615027,"lat":15.6666667,"adminName1":"Atlántida","population":0},{"countryName":"Honduras","adminCode1":"02","fclName":"country, state, region,...","countryCode":"HN","lng":-87.0833333,"fcodeName":"first-order administrative division","toponymName":"Departamento de Choluteca","fcl":"A","numberOfChildren":16,"name":"Departamento de Choluteca","fcode":"ADM1","geonameId":3613527,"lat":13.3333333,"adminName1":"Choluteca","population":0},{"countryName":"Honduras","adminCode1":"03","fclName":"country, state, region,...","countryCode":"HN","lng":-85.6666667,"fcodeName":"first-order administrative division","toponymName":"Departamento de Colón","fcl":"A","numberOfChildren":9,"name":"Departamento de Colón","fcode":"ADM1","geonameId":3613358,"lat":15.75,"adminName1":"Colón","population":0},{"countryName":"Honduras","adminCode1":"04","fclName":"country, state, region,...","countryCode":"HN","lng":-87.6666667,"fcodeName":"first-order administrative division","toponymName":"Departamento de Comayagua","fcl":"A","numberOfChildren":19,"name":"Departamento de Comayagua","fcode":"ADM1","geonameId":3613319,"lat":14.5833333,"adminName1":"Comayagua","population":0},{"countryName":"Honduras","adminCode1":"05","fclName":"country, state, region,...","countryCode":"HN","lng":-88.9166667,"fcodeName":"first-order administrative division","toponymName":"Departamento de Copán","fcl":"A","numberOfChildren":23,"name":"Departamento de Copán","fcode":"ADM1","geonameId":3613229,"lat":14.9166667,"adminName1":"Copán","population":0},{"countryName":"Honduras","adminCode1":"06","fclName":"country, state, region,...","countryCode":"HN","lng":-88,"fcodeName":"first-order administrative division","toponymName":"Departamento de Cortés","fcl":"A","numberOfChildren":10,"name":"Departamento de Cortés","fcode":"ADM1","geonameId":3613140,"lat":15.4166667,"adminName1":"Cortés","population":0},{"countryName":"Honduras","adminCode1":"07","fclName":"country, state, region,...","countryCode":"HN","lng":-86.5,"fcodeName":"first-order administrative division","toponymName":"Departamento de El Paraíso","fcl":"A","numberOfChildren":18,"name":"Departamento de El Paraíso","fcode":"ADM1","geonameId":3610942,"lat":14.0833333,"adminName1":"El Paraíso","population":0},{"countryName":"Honduras","adminCode1":"09","fclName":"country, state, region,...","countryCode":"HN","lng":-84.3333333,"fcodeName":"first-order administrative division","toponymName":"Departamento de Gracias a Dios","fcl":"A","numberOfChildren":2,"name":"Departamento de Gracias a Dios","fcode":"ADM1","geonameId":3609583,"lat":15.25,"adminName1":"Gracias a Dios","population":0},{"countryName":"Honduras","adminCode1":"10","fclName":"country, state, region,...","countryCode":"HN","lng":-88.1666667,"fcodeName":"first-order administrative division","toponymName":"Departamento de Intibucá","fcl":"A","numberOfChildren":16,"name":"Departamento de Intibucá","fcode":"ADM1","geonameId":3608833,"lat":14.3333333,"adminName1":"Intibucá","population":0},{"countryName":"Honduras","adminCode1":"11","fclName":"country, state, region,...","countryCode":"HN","lng":-86.5,"fcodeName":"first-order administrative division","toponymName":"Departamento de Islas de la Bahía","fcl":"A","numberOfChildren":4,"name":"Departamento de Islas de la Bahía","fcode":"ADM1","geonameId":3608814,"lat":16.3333333,"adminName1":"Islas de la Bahía","population":0},{"countryName":"Honduras","adminCode1":"13","fclName":"country, state, region,...","countryCode":"HN","lng":-88.5833333,"fcodeName":"first-order administrative division","toponymName":"Departamento de Lempira","fcl":"A","numberOfChildren":27,"name":"Departamento de Lempira","fcode":"ADM1","geonameId":3606066,"lat":14.5,"adminName1":"Lempira","population":0},{"countryName":"Honduras","adminCode1":"14","fclName":"country, state, region,...","countryCode":"HN","lng":-89,"fcodeName":"first-order administrative division","toponymName":"Departamento de Ocotepeque","fcl":"A","numberOfChildren":16,"name":"Departamento de Ocotepeque","fcode":"ADM1","geonameId":3604318,"lat":14.5,"adminName1":"Ocotepeque","population":0},{"countryName":"Honduras","adminCode1":"15","fclName":"country, state, region,...","countryCode":"HN","lng":-86,"fcodeName":"first-order administrative division","toponymName":"Departamento de Olancho","fcl":"A","numberOfChildren":22,"name":"Departamento de Olancho","fcode":"ADM1","geonameId":3604249,"lat":14.8333333,"adminName1":"Olancho","population":0},{"countryName":"Honduras","adminCode1":"16","fclName":"country, state, region,...","countryCode":"HN","lng":-88.3333333,"fcodeName":"first-order administrative division","toponymName":"Departamento de Santa Bárbara","fcl":"A","numberOfChildren":26,"name":"Departamento de Santa Bárbara","fcode":"ADM1","geonameId":3601689,"lat":15.0833333,"adminName1":"Santa Bárbara","population":0},{"countryName":"Honduras","adminCode1":"17","fclName":"country, state, region,...","countryCode":"HN","lng":-87.5833333,"fcodeName":"first-order administrative division","toponymName":"Departamento de Valle","fcl":"A","numberOfChildren":9,"name":"Departamento de Valle","fcode":"ADM1","geonameId":3600456,"lat":13.5833333,"adminName1":"Valle","population":0},{"countryName":"Honduras","adminCode1":"18","fclName":"country, state, region,...","countryCode":"HN","lng":-87.1666667,"fcodeName":"first-order administrative division","toponymName":"Departamento de Yoro","fcl":"A","numberOfChildren":11,"name":"Departamento de Yoro","fcode":"ADM1","geonameId":3600193,"lat":15.25,"adminName1":"Yoro","population":0},{"countryName":"Honduras","adminCode1":"08","fclName":"country, state, region,...","countryCode":"HN","lng":-87.1666667,"fcodeName":"first-order administrative division","toponymName":"Departmento de Francisco Morazán","fcl":"A","numberOfChildren":27,"name":"Departmento de Francisco Morazán","fcode":"ADM1","geonameId":3609672,"lat":14.25,"adminName1":"Francisco Morazán","population":0},{"countryName":"Honduras","adminCode1":"12","fclName":"country, state, region,...","countryCode":"HN","lng":-87.9166667,"fcodeName":"first-order administrative division","toponymName":"Departmento de La Paz","fcl":"A","numberOfChildren":19,"name":"Departmento de La Paz","fcode":"ADM1","geonameId":3607251,"lat":14.0833333,"adminName1":"La Paz","population":0}]}