{"totalResultsCount":107,"geonames":[{"countryName":"Tonga","adminCode1":"02","fclName":"city, village,...","countryCode":"TO","lng":-175.05,"fcodeName":"populated place","toponymName":"Afa","fcl":"P","name":"Afa","fcode":"PPL","geonameId":4032781,"lat":-21.1333333,"adminName1":"Tongatapu","population":0},{"countryName":"Tonga","adminCode1":"02","fclName":"city, village,...","countryCode":"TO","lng":-175.1333333,"fcodeName":"populated place","toponymName":"Alaki","fcl":"P","name":"Alaki","fcode":"PPL","geonameId":4032774,"lat":-21.1833333,"adminName1":"Tongatapu","population":0},{"countryName":"Tonga","adminCode1":"01","fclName":"city, village,...","countryCode":"TO","lng":-174.3166667,"fcodeName":"populated place","toponymName":"Alaki Fonua","fcl":"P","name":"Alaki Fonua","fcode":"PPL","geonameId":4032773,"lat":-19.75,"adminName1":"Ha‘apai","population":0},{"countryName":"Tonga","adminCode1":"03","fclName":"city, village,...","countryCode":"TO","lng":-175.6333333,"fcodeName":"populated place","toponymName":"Esia","fcl":"P","name":"Esia","fcode":"PPL","geonameId":4032726,"lat":-15.5666667,"adminName1":"Vava‘u","population":0},{"countryName":"Tonga","adminCode1":"02","fclName":"city, village,...","countryCode":"TO","lng":-175.3333333,"fcodeName":"populated place","toponymName":"Fahefa","fcl":"P","name":"Fahefa","fcode":"PPL","geonameId":4032716,"lat":-21.1333333,"adminName1":"Tongatapu","population":0},{"countryName":"Tonga","adminCode1":"01","fclName":"city, village,...","countryCode":"TO","lng":-174.2833333,"fcodeName":"populated place","toponymName":"Fakakai","fcl":"P","name":"Fakakai","fcode":"PPL","geonameId":4032709,"lat":-19.6833333,"adminName1":"Ha‘apai","population":0},{"countryName":"Tonga","adminCode1":"03","fclName":"city, village,...","countryCode":"TO","lng":-173.7333333,"fcodeName":"populated place","toponymName":"Falehau","fcl":"P","name":"Falehau","fcode":"PPL","geonameId":4032704,"lat":-15.9333333,"adminName1":"Vava‘u","population":0},{"countryName":"Tonga","adminCode1":"01","fclName":"city, village,...","countryCode":"TO","lng":-174.2833333,"fcodeName":"populated place","toponymName":"Faleloa","fcl":"P","name":"Faleloa","fcode":"PPL","geonameId":4032703,"lat":-19.7333333,"adminName1":"Ha‘apai","population":0},{"countryName":"Tonga","adminCode1":"03","fclName":"city, village,...","countryCode":"TO","lng":-173.95,"fcodeName":"populated place","toponymName":"Faleono","fcl":"P","name":"Faleono","fcode":"PPL","geonameId":4032702,"lat":-18.6333333,"adminName1":"Vava‘u","population":0},{"countryName":"Tonga","adminCode1":"03","fclName":"city, village,...","countryCode":"TO","lng":-175.6166667,"fcodeName":"populated place","toponymName":"Fata`ulua","fcl":"P","name":"Fata`ulua","fcode":"PPL","geonameId":4032687,"lat":-15.5666667,"adminName1":"Vava‘u","population":0},{"countryName":"Tonga","adminCode1":"02","fclName":"city, village,...","countryCode":"TO","lng":-175.2833333,"fcodeName":"populated place","toponymName":"Fatai","fcl":"P","name":"Fatai","fcode":"PPL","geonameId":4032688,"lat":-21.1333333,"adminName1":"Tongatapu","population":0},{"countryName":"Tonga","adminCode1":"02","fclName":"city, village,...","countryCode":"TO","lng":-175.1166667,"fcodeName":"populated place","toponymName":"Fatumu","fcl":"P","name":"Fatumu","fcode":"PPL","geonameId":4032683,"lat":-21.2,"adminName1":"Tongatapu","population":0},{"countryName":"Tonga","adminCode1":"03","fclName":"city, village,...","countryCode":"TO","lng":-173.9666667,"fcodeName":"populated place","toponymName":"Feletoa","fcl":"P","name":"Feletoa","fcode":"PPL","geonameId":4032681,"lat":-18.6166667,"adminName1":"Vava‘u","population":0},{"countryName":"Tonga","adminCode1":"02","fclName":"city, village,...","countryCode":"TO","lng":-175.3333333,"fcodeName":"populated place","toponymName":"Fo`ui","fcl":"P","name":"Fo`ui","fcode":"PPL","geonameId":4032653,"lat":-21.1166667,"adminName1":"Tongatapu","population":0},{"countryName":"Tonga","adminCode1":"02","fclName":"city, village,...","countryCode":"TO","lng":-175.1833333,"fcodeName":"populated place","toponymName":"Folaha","fcl":"P","name":"Folaha","fcode":"PPL","geonameId":4032671,"lat":-21.1666667,"adminName1":"Tongatapu","population":0},{"countryName":"Tonga","adminCode1":"01","fclName":"city, village,...","countryCode":"TO","lng":-174.3333333,"fcodeName":"populated place","toponymName":"Fonginonga","fcl":"P","name":"Fonginonga","fcode":"PPL","geonameId":4032670,"lat":-19.75,"adminName1":"Ha‘apai","population":0},{"countryName":"Tonga","adminCode1":"02","fclName":"city, village,...","countryCode":"TO","lng":-175.1333333,"fcodeName":"populated place","toponymName":"Fua`amotu","fcl":"P","name":"Fua`amotu","fcode":"PPL","geonameId":4032652,"lat":-21.25,"adminName1":"Tongatapu","population":0},{"countryName":"Tonga","adminCode1":"02","fclName":"city, village,...","countryCode":"TO","lng":-175.2833333,"fcodeName":"populated place","toponymName":"Ha`akame","fcl":"P","name":"Ha`akame","fcode":"PPL","geonameId":4032644,"lat":-21.1833333,"adminName1":"Tongatapu","population":0},{"countryName":"Tonga","adminCode1":"02","fclName":"city, village,...","countryCode":"TO","lng":-175.3333333,"fcodeName":"populated place","toponymName":"Ha`akili","fcl":"P","name":"Ha`akili","fcode":"PPL","geonameId":4032643,"lat":-21.1,"adminName1":"Tongatapu","population":0},{"countryName":"Tonga","adminCode1":"02","fclName":"city, village,...","countryCode":"TO","lng":-175.2833333,"fcodeName":"populated place","toponymName":"Ha`alalo","fcl":"P","name":"Ha`alalo","fcode":"PPL","geonameId":4032642,"lat":-21.1833333,"adminName1":"Tongatapu","population":0},{"countryName":"Tonga","adminCode1":"01","fclName":"city, village,...","countryCode":"TO","lng":-174.3,"fcodeName":"populated place","toponymName":"Ha`ano","fcl":"P","name":"Ha`ano","fcode":"PPL","geonameId":4032639,"lat":-19.6666667,"adminName1":"Ha‘apai","population":0},{"countryName":"Tonga","adminCode1":"02","fclName":"city, village,...","countryCode":"TO","lng":-175.1166667,"fcodeName":"populated place","toponymName":"Ha`asini","fcl":"P","name":"Ha`asini","fcode":"PPL","geonameId":4032635,"lat":-21.25,"adminName1":"Tongatapu","population":0},{"countryName":"Tonga","adminCode1":"02","fclName":"city, village,...","countryCode":"TO","lng":-175.3333333,"fcodeName":"populated place","toponymName":"Ha`atafu","fcl":"P","name":"Ha`atafu","fcode":"PPL","geonameId":4032634,"lat":-21.0666667,"adminName1":"Tongatapu","population":0},{"countryName":"Tonga","adminCode1":"02","fclName":"city, village,...","countryCode":"TO","lng":-175.2333333,"fcodeName":"populated place","toponymName":"Ha`ateiho","fcl":"P","name":"Ha`ateiho","fcode":"PPL","geonameId":4032632,"lat":-21.1666667,"adminName1":"Tongatapu","population":0},{"countryName":"Tonga","adminCode1":"02","fclName":"city, village,...","countryCode":"TO","lng":-175.3333333,"fcodeName":"populated place","toponymName":"Ha`avakatolo","fcl":"P","name":"Ha`avakatolo","fcode":"PPL","geonameId":4032630,"lat":-21.1,"adminName1":"Tongatapu","population":0},{"countryName":"Tonga","adminCode1":"02","fclName":"city, village,...","countryCode":"TO","lng":-175.3291667,"fcodeName":"populated place","toponymName":"Ha`utu","fcl":"P","name":"Ha`utu","fcode":"PPL","geonameId":4036396,"lat":-21.1416667,"adminName1":"Tongatapu","population":0},{"countryName":"Tonga","adminCode1":"03","fclName":"city, village,...","countryCode":"TO","lng":-173.9333333,"fcodeName":"populated place","toponymName":"Haalaufuli","fcl":"P","name":"Haalaufuli","fcode":"PPL","geonameId":4032641,"lat":-18.6166667,"adminName1":"Vava‘u","population":0},{"countryName":"Tonga","adminCode1":"02","fclName":"city, village,...","countryCode":"TO","lng":-174.9666667,"fcodeName":"populated place","toponymName":"Haatua","fcl":"P","name":"Haatua","fcode":"PPL","geonameId":4032631,"lat":-21.3833333,"adminName1":"Tongatapu","population":0},{"countryName":"Tonga","adminCode1":"02","fclName":"city, village,...","countryCode":"TO","lng":-175.1166667,"fcodeName":"populated place","toponymName":"Hamula","fcl":"P","name":"Hamula","fcode":"PPL","geonameId":4032625,"lat":-21.25,"adminName1":"Tongatapu","population":0},{"countryName":"Tonga","adminCode1":"01","fclName":"city, village,...","countryCode":"TO","lng":-174.35,"fcodeName":"populated place","toponymName":"Hatou","fcl":"P","name":"Hatou","fcode":"PPL","geonameId":4032624,"lat":-19.8166667,"adminName1":"Ha‘apai","population":0},{"countryName":"Tonga","adminCode1":"02","fclName":"city, village,...","countryCode":"TO","lng":-175.2166667,"fcodeName":"populated place","toponymName":"Havelu","fcl":"P","name":"Havelu","fcode":"PPL","geonameId":4032623,"lat":-21.15,"adminName1":"Tongatapu","population":3417},{"countryName":"Tonga","adminCode1":"02","fclName":"city, village,...","countryCode":"TO","lng":-175.1,"fcodeName":"populated place","toponymName":"Haveluliku","fcl":"P","name":"Haveluliku","fcode":"PPL","geonameId":4032622,"lat":-21.2,"adminName1":"Tongatapu","population":0},{"countryName":"Tonga","adminCode1":"01","fclName":"city, village,...","countryCode":"TO","lng":-174.3666667,"fcodeName":"populated place","toponymName":"Hihifo","fcl":"P","name":"Hihifo","fcode":"PPL","geonameId":4032618,"lat":-19.8166667,"adminName1":"Ha‘apai","population":0},{"countryName":"Tonga","adminCode1":"03","fclName":"city, village,...","countryCode":"TO","lng":-173.75,"fcodeName":"populated place","toponymName":"Hihifo","fcl":"P","name":"Hihifo","fcode":"PPL","geonameId":4032619,"lat":-15.95,"adminName1":"Vava‘u","population":815},{"countryName":"Tonga","adminCode1":"02","fclName":"city, village,...","countryCode":"TO","lng":-175.2166667,"fcodeName":"populated place","toponymName":"Hofoa","fcl":"P","name":"Hofoa","fcode":"PPL","geonameId":4032616,"lat":-21.1333333,"adminName1":"Tongatapu","population":0},{"countryName":"Tonga","adminCode1":"02","fclName":"city, village,...","countryCode":"TO","lng":-175.1166667,"fcodeName":"populated place","toponymName":"Hoi","fcl":"P","name":"Hoi","fcode":"PPL","geonameId":4032615,"lat":-21.1666667,"adminName1":"Tongatapu","population":0},{"countryName":"Tonga","adminCode1":"02","fclName":"city, village,...","countryCode":"TO","lng":-175.15,"fcodeName":"populated place","toponymName":"Holonga","fcl":"P","name":"Holonga","fcode":"PPL","geonameId":4032613,"lat":-21.1833333,"adminName1":"Tongatapu","population":0},{"countryName":"Tonga","adminCode1":"03","fclName":"city, village,...","countryCode":"TO","lng":-173.9666667,"fcodeName":"populated place","toponymName":"Holonga","fcl":"P","name":"Holonga","fcode":"PPL","geonameId":4032614,"lat":-18.5833333,"adminName1":"Vava‘u","population":0},{"countryName":"Tonga","adminCode1":"01","fclName":"city, village,...","countryCode":"TO","lng":-174.35,"fcodeName":"populated place","toponymName":"Holopeka","fcl":"P","name":"Holopeka","fcode":"PPL","geonameId":4032611,"lat":-19.7833333,"adminName1":"Ha‘apai","population":0},{"countryName":"Tonga","adminCode1":"02","fclName":"city, village,...","countryCode":"TO","lng":-175.3,"fcodeName":"populated place","toponymName":"Houma","fcl":"P","name":"Houma","fcode":"PPL","geonameId":4032606,"lat":-21.1666667,"adminName1":"Tongatapu","population":0},{"countryName":"Tonga","adminCode1":"02","fclName":"city, village,...","countryCode":"TO","lng":-174.9333333,"fcodeName":"populated place","toponymName":"Huma","fcl":"P","name":"Huma","fcode":"PPL","geonameId":4032603,"lat":-21.3166667,"adminName1":"Tongatapu","population":0},{"countryName":"Tonga","adminCode1":"02","fclName":"city, village,...","countryCode":"TO","lng":-175.3333333,"fcodeName":"populated place","toponymName":"Kala`au","fcl":"P","name":"Kala`au","fcode":"PPL","geonameId":4032587,"lat":-21.1333333,"adminName1":"Tongatapu","population":0},{"countryName":"Tonga","adminCode1":"02","fclName":"city, village,...","countryCode":"TO","lng":-175.3333333,"fcodeName":"populated place","toponymName":"Kanokupolu","fcl":"P","name":"Kanokupolu","fcode":"PPL","geonameId":4032583,"lat":-21.0833333,"adminName1":"Tongatapu","population":0},{"countryName":"Tonga","adminCode1":"03","fclName":"city, village,...","countryCode":"TO","lng":-173.9333333,"fcodeName":"populated place","toponymName":"Koloa","fcl":"P","name":"Koloa","fcode":"PPL","geonameId":4032570,"lat":-18.65,"adminName1":"Vava‘u","population":0},{"countryName":"Tonga","adminCode1":"02","fclName":"city, village,...","countryCode":"TO","lng":-175.1666667,"fcodeName":"populated place","toponymName":"Kolofuu","fcl":"P","name":"Kolofuu","fcode":"PPL","geonameId":4032568,"lat":-21.2,"adminName1":"Tongatapu","population":0},{"countryName":"Tonga","adminCode1":"02","fclName":"city, village,...","countryCode":"TO","lng":-175.0666667,"fcodeName":"populated place","toponymName":"Kolonga","fcl":"P","name":"Kolonga","fcode":"PPL","geonameId":4032566,"lat":-21.1333333,"adminName1":"Tongatapu","population":0},{"countryName":"Tonga","adminCode1":"02","fclName":"city, village,...","countryCode":"TO","lng":-175.3333333,"fcodeName":"populated place","toponymName":"Kolovai","fcl":"P","name":"Kolovai","fcode":"PPL","geonameId":4032563,"lat":-21.1,"adminName1":"Tongatapu","population":0},{"countryName":"Tonga","adminCode1":"01","fclName":"city, village,...","countryCode":"TO","lng":-174.35,"fcodeName":"populated place","toponymName":"Koulo","fcl":"P","name":"Koulo","fcode":"PPL","geonameId":4032557,"lat":-19.7833333,"adminName1":"Ha‘apai","population":0},{"countryName":"Tonga","adminCode1":"02","fclName":"city, village,...","countryCode":"TO","lng":-175.2833333,"fcodeName":"populated place","toponymName":"Lakepa","fcl":"P","name":"Lakepa","fcode":"PPL","geonameId":4032548,"lat":-21.15,"adminName1":"Tongatapu","population":0},{"countryName":"Tonga","adminCode1":"02","fclName":"city, village,...","countryCode":"TO","lng":-175.1166667,"fcodeName":"populated place","toponymName":"Lavengatonga","fcl":"P","name":"Lavengatonga","fcode":"PPL","geonameId":4032537,"lat":-21.2333333,"adminName1":"Tongatapu","population":0},{"countryName":"Tonga","adminCode1":"03","fclName":"city, village,...","countryCode":"TO","lng":-173.9833333,"fcodeName":"populated place","toponymName":"Leimatu`a","fcl":"P","name":"Leimatu`a","fcode":"PPL","geonameId":4032535,"lat":-18.6,"adminName1":"Vava‘u","population":0},{"countryName":"Tonga","adminCode1":"03","fclName":"city, village,...","countryCode":"TO","lng":-174.05,"fcodeName":"populated place","toponymName":"Longomapu","fcl":"P","name":"Longomapu","fcode":"PPL","geonameId":4032519,"lat":-18.6333333,"adminName1":"Vava‘u","population":0},{"countryName":"Tonga","adminCode1":"02","fclName":"city, village,...","countryCode":"TO","lng":-175.1666667,"fcodeName":"populated place","toponymName":"Longoteme","fcl":"P","name":"Longoteme","fcode":"PPL","geonameId":4032518,"lat":-21.1833333,"adminName1":"Tongatapu","population":0},{"countryName":"Tonga","adminCode1":"01","fclName":"city, village,...","countryCode":"TO","lng":-174.3166667,"fcodeName":"populated place","toponymName":"Lotofoa","fcl":"P","name":"Lotofoa","fcode":"PPL","geonameId":4032515,"lat":-19.75,"adminName1":"Ha‘apai","population":0},{"countryName":"Tonga","adminCode1":"02","fclName":"city, village,...","countryCode":"TO","lng":-175.1333333,"fcodeName":"populated place","toponymName":"Makaunga","fcl":"P","name":"Makaunga","fcode":"PPL","geonameId":4032500,"lat":-21.15,"adminName1":"Tongatapu","population":0},{"countryName":"Tonga","adminCode1":"03","fclName":"city, village,...","countryCode":"TO","lng":-173.9666667,"fcodeName":"populated place","toponymName":"Makave","fcl":"P","name":"Makave","fcode":"PPL","geonameId":4032499,"lat":-18.65,"adminName1":"Vava‘u","population":0},{"countryName":"Tonga","adminCode1":"02","fclName":"city, village,...","countryCode":"TO","lng":-175.15,"fcodeName":"populated place","toponymName":"Malapo","fcl":"P","name":"Malapo","fcode":"PPL","geonameId":4032496,"lat":-21.2,"adminName1":"Tongatapu","population":0},{"countryName":"Tonga","adminCode1":"03","fclName":"city, village,...","countryCode":"TO","lng":-173.95,"fcodeName":"populated place","toponymName":"Mangia","fcl":"P","name":"Mangia","fcode":"PPL","geonameId":4032492,"lat":-18.6166667,"adminName1":"Vava‘u","population":0},{"countryName":"Tonga","adminCode1":"02","fclName":"city, village,...","countryCode":"TO","lng":-175.1,"fcodeName":"populated place","toponymName":"Manuka","fcl":"P","name":"Manuka","fcode":"PPL","geonameId":4032487,"lat":-21.1166667,"adminName1":"Tongatapu","population":0},{"countryName":"Tonga","adminCode1":"02","fclName":"city, village,...","countryCode":"TO","lng":-175.3166667,"fcodeName":"populated place","toponymName":"Masilamea","fcl":"P","name":"Masilamea","fcode":"PPL","geonameId":4032483,"lat":-21.1166667,"adminName1":"Tongatapu","population":0},{"countryName":"Tonga","adminCode1":"03","fclName":"city, village,...","countryCode":"TO","lng":-175.6166667,"fcodeName":"populated place","toponymName":"Mata`aho","fcl":"P","name":"Mata`aho","fcode":"PPL","geonameId":4032482,"lat":-15.5833333,"adminName1":"Vava‘u","population":0},{"countryName":"Tonga","adminCode1":"02","fclName":"city, village,...","countryCode":"TO","lng":-175.3166667,"fcodeName":"populated place","toponymName":"Matahau","fcl":"P","name":"Matahau","fcode":"PPL","geonameId":4032480,"lat":-21.15,"adminName1":"Tongatapu","population":0},{"countryName":"Tonga","adminCode1":"03","fclName":"city, village,...","countryCode":"TO","lng":-173.9666667,"fcodeName":"populated place","toponymName":"Mataika","fcl":"P","name":"Mataika","fcode":"PPL","geonameId":4032478,"lat":-18.6166667,"adminName1":"Vava‘u","population":0},{"countryName":"Tonga","adminCode1":"03","fclName":"city, village,...","countryCode":"TO","lng":-173.75,"fcodeName":"populated place","toponymName":"Matavai","fcl":"P","name":"Matavai","fcode":"PPL","geonameId":4032467,"lat":-15.9666667,"adminName1":"Vava‘u","population":0},{"countryName":"Tonga","adminCode1":"02","fclName":"city, village,...","countryCode":"TO","lng":-175.1166667,"fcodeName":"populated place","toponymName":"Mu`a","fcl":"P","name":"Mu`a","fcode":"PPL","geonameId":4032443,"lat":-21.1833333,"adminName1":"Tongatapu","population":0},{"countryName":"Tonga","adminCode1":"03","fclName":"city, village,...","countryCode":"TO","lng":-175.6,"fcodeName":"populated place","toponymName":"Mu`a","fcl":"P","name":"Mu`a","fcode":"PPL","geonameId":4032444,"lat":-15.6,"adminName1":"Vava‘u","population":0},{"countryName":"Tonga","adminCode1":"01","fclName":"city, village,...","countryCode":"TO","lng":-174.3,"fcodeName":"populated place","toponymName":"Muitoa","fcl":"P","name":"Muitoa","fcode":"PPL","geonameId":4032431,"lat":-19.65,"adminName1":"Ha‘apai","population":0},{"countryName":"Tonga","adminCode1":"02","fclName":"city, village,...","countryCode":"TO","lng":-175.1166667,"fcodeName":"populated place","toponymName":"Nakolo","fcl":"P","name":"Nakolo","fcode":"PPL","geonameId":4032425,"lat":-21.25,"adminName1":"Tongatapu","population":0},{"countryName":"Tonga","adminCode1":"01","fclName":"city, village,...","countryCode":"TO","lng":-174.35,"fcodeName":"populated place","toponymName":"Navea","fcl":"P","name":"Navea","fcode":"PPL","geonameId":4032422,"lat":-19.8,"adminName1":"Ha‘apai","population":0},{"countryName":"Tonga","adminCode1":"02","fclName":"city, village,...","countryCode":"TO","lng":-175.1,"fcodeName":"populated place","toponymName":"Navutoka","fcl":"P","name":"Navutoka","fcode":"PPL","geonameId":4032421,"lat":-21.1166667,"adminName1":"Tongatapu","population":0},{"countryName":"Tonga","adminCode1":"02","fclName":"city, village,...","countryCode":"TO","lng":-175.3333333,"fcodeName":"populated place","toponymName":"Neiafu","fcl":"P","name":"Neiafu","fcode":"PPL","geonameId":4032419,"lat":-21.0833333,"adminName1":"Tongatapu","population":0},{"countryName":"Tonga","adminCode1":"03","fclName":"city, village,...","countryCode":"TO","lng":-173.9833333,"fcodeName":"populated place","toponymName":"Neiafu","fcl":"P","name":"Neiafu","fcode":"PPL","geonameId":4032420,"lat":-18.65,"adminName1":"Vava‘u","population":4320},{"countryName":"Tonga","adminCode1":"02","fclName":"city, village,...","countryCode":"TO","lng":-175.05,"fcodeName":"populated place","toponymName":"Niutoua","fcl":"P","name":"Niutoua","fcode":"PPL","geonameId":4032411,"lat":-21.1333333,"adminName1":"Tongatapu","population":0},{"countryName":"Tonga","adminCode1":"03","fclName":"city, village,...","countryCode":"TO","lng":-174.0833333,"fcodeName":"populated place","toponymName":"Nopapu","fcl":"P","name":"Nopapu","fcode":"PPL","geonameId":4032407,"lat":-18.7,"adminName1":"Vava‘u","population":0},{"countryName":"Tonga","adminCode1":"02","fclName":"city, village,...","countryCode":"TO","lng":-175.2,"fcodeName":"capital of a political entity","toponymName":"Nuku`alofa","fcl":"P","name":"Nuku'alofa","fcode":"PPLC","geonameId":4032402,"lat":-21.1333333,"adminName1":"Tongatapu","population":22400},{"countryName":"Tonga","adminCode1":"02","fclName":"city, village,...","countryCode":"TO","lng":-175.2,"fcodeName":"populated place","toponymName":"Nukuhetulu","fcl":"P","name":"Nukuhetulu","fcode":"PPL","geonameId":4032400,"lat":-21.1666667,"adminName1":"Tongatapu","population":0},{"countryName":"Tonga","adminCode1":"02","fclName":"city, village,...","countryCode":"TO","lng":-175.1333333,"fcodeName":"populated place","toponymName":"Nukuleka","fcl":"P","name":"Nukuleka","fcode":"PPL","geonameId":4032395,"lat":-21.15,"adminName1":"Tongatapu","population":0},{"countryName":"Tonga","adminCode1":"02","fclName":"city, village,...","countryCode":"TO","lng":-175.3,"fcodeName":"populated place","toponymName":"Nukunuku","fcl":"P","name":"Nukunuku","fcode":"PPL","geonameId":4032392,"lat":-21.1333333,"adminName1":"Tongatapu","population":0},{"countryName":"Tonga","adminCode1":"02","fclName":"city, village,...","countryCode":"TO","lng":-174.95,"fcodeName":"populated place","toponymName":"Pangai","fcl":"P","name":"Pangai","fcode":"PPL","geonameId":4032368,"lat":-21.3666667,"adminName1":"Tongatapu","population":0},{"countryName":"Tonga","adminCode1":"01","fclName":"city, village,...","countryCode":"TO","lng":-174.35,"fcodeName":"populated place","toponymName":"Pangai","fcl":"P","name":"Pangai","fcode":"PPL","geonameId":4032369,"lat":-19.8,"adminName1":"Ha‘apai","population":1738},{"countryName":"Tonga","adminCode1":"03","fclName":"city, village,...","countryCode":"TO","lng":-174,"fcodeName":"populated place","toponymName":"Pangai","fcl":"P","name":"Pangai","fcode":"PPL","geonameId":4032370,"lat":-18.6833333,"adminName1":"Vava‘u","population":0},{"countryName":"Tonga","adminCode1":"02","fclName":"city, village,...","countryCode":"TO","lng":-175.2333333,"fcodeName":"populated place","toponymName":"Pea","fcl":"P","name":"Pea","fcode":"PPL","geonameId":4032363,"lat":-21.1833333,"adminName1":"Tongatapu","population":0},{"countryName":"Tonga","adminCode1":"03","fclName":"city, village,...","countryCode":"TO","lng":-175.6166667,"fcodeName":"populated place","toponymName":"Petani","fcl":"P","name":"Petani","fcode":"PPL","geonameId":4032360,"lat":-15.6333333,"adminName1":"Vava‘u","population":0},{"countryName":"Tonga","adminCode1":"02","fclName":"city, village,...","countryCode":"TO","lng":-175.2333333,"fcodeName":"populated place","toponymName":"Puke","fcl":"P","name":"Puke","fcode":"PPL","geonameId":4032352,"lat":-21.1333333,"adminName1":"Tongatapu","population":0},{"countryName":"Tonga","adminCode1":"01","fclName":"city, village,...","countryCode":"TO","lng":-174.2833333,"fcodeName":"populated place","toponymName":"Pukutala","fcl":"P","name":"Pukutala","fcode":"PPL","geonameId":4032349,"lat":-19.6833333,"adminName1":"Ha‘apai","population":0},{"countryName":"Tonga","adminCode1":"01","fclName":"city, village,...","countryCode":"TO","lng":-174.45,"fcodeName":"populated place","toponymName":"Puleieia","fcl":"P","name":"Puleieia","fcode":"PPL","geonameId":4032348,"lat":-19.6,"adminName1":"Ha‘apai","population":0},{"countryName":"Tonga","adminCode1":"03","fclName":"city, village,...","countryCode":"TO","lng":-175.6166667,"fcodeName":"populated place","toponymName":"Sapa`ata","fcl":"P","name":"Sapa`ata","fcode":"PPL","geonameId":4032336,"lat":-15.5666667,"adminName1":"Vava‘u","population":0},{"countryName":"Tonga","adminCode1":"03","fclName":"city, village,...","countryCode":"TO","lng":-173.95,"fcodeName":"populated place","toponymName":"Ta`anea","fcl":"P","name":"Ta`anea","fcode":"PPL","geonameId":4032326,"lat":-18.6,"adminName1":"Vava‘u","population":0},{"countryName":"Tonga","adminCode1":"02","fclName":"city, village,...","countryCode":"TO","lng":-175.1,"fcodeName":"populated place","toponymName":"Talafo`ou","fcl":"P","name":"Talafo`ou","fcode":"PPL","geonameId":4032323,"lat":-21.1333333,"adminName1":"Tongatapu","population":0},{"countryName":"Tonga","adminCode1":"02","fclName":"city, village,...","countryCode":"TO","lng":-175.3166667,"fcodeName":"populated place","toponymName":"Te`ekiu","fcl":"P","name":"Te`ekiu","fcode":"PPL","geonameId":4032307,"lat":-21.1333333,"adminName1":"Tongatapu","population":0},{"countryName":"Tonga","adminCode1":"03","fclName":"city, village,...","countryCode":"TO","lng":-174.0166667,"fcodeName":"populated place","toponymName":"Tefisi","fcl":"P","name":"Tefisi","fcode":"PPL","geonameId":4032306,"lat":-18.6333333,"adminName1":"Vava‘u","population":0},{"countryName":"Tonga","adminCode1":"02","fclName":"city, village,...","countryCode":"TO","lng":-175.2333333,"fcodeName":"populated place","toponymName":"Tofoa","fcl":"P","name":"Tofoa","fcode":"PPL","geonameId":4032295,"lat":-21.1666667,"adminName1":"Tongatapu","population":0},{"countryName":"Tonga","adminCode1":"02","fclName":"city, village,...","countryCode":"TO","lng":-175.2666667,"fcodeName":"populated place","toponymName":"Tokomololo","fcl":"P","name":"Tokomololo","fcode":"PPL","geonameId":4032288,"lat":-21.1833333,"adminName1":"Tongatapu","population":0},{"countryName":"Tonga","adminCode1":"03","fclName":"city, village,...","countryCode":"TO","lng":-175.6,"fcodeName":"populated place","toponymName":"Tongamama`o","fcl":"P","name":"Tongamama`o","fcode":"PPL","geonameId":4032281,"lat":-15.6166667,"adminName1":"Vava‘u","population":0},{"countryName":"Tonga","adminCode1":"03","fclName":"city, village,...","countryCode":"TO","lng":-173.9166667,"fcodeName":"populated place","toponymName":"Tu`anekivale","fcl":"P","name":"Tu`anekivale","fcode":"PPL","geonameId":4032274,"lat":-18.6333333,"adminName1":"Vava‘u","population":0},{"countryName":"Tonga","adminCode1":"03","fclName":"city, village,...","countryCode":"TO","lng":-174.0333333,"fcodeName":"populated place","toponymName":"Tu`anuku","fcl":"P","name":"Tu`anuku","fcode":"PPL","geonameId":4032272,"lat":-18.6666667,"adminName1":"Vava‘u","population":0},{"countryName":"Tonga","adminCode1":"02","fclName":"city, village,...","countryCode":"TO","lng":-174.9666667,"fcodeName":"populated place","toponymName":"Tufurai","fcl":"P","name":"Tufurai","fcode":"PPL","geonameId":4032270,"lat":-21.3666667,"adminName1":"Tongatapu","population":0},{"countryName":"Tonga","adminCode1":"03","fclName":"city, village,...","countryCode":"TO","lng":-173.9666667,"fcodeName":"populated place","toponymName":"Utui","fcl":"P","name":"Utui","fcode":"PPL","geonameId":4032252,"lat":-18.6333333,"adminName1":"Vava‘u","population":0},{"countryName":"Tonga","adminCode1":"03","fclName":"city, village,...","countryCode":"TO","lng":-174,"fcodeName":"populated place","toponymName":"Utulei","fcl":"P","name":"Utulei","fcode":"PPL","geonameId":4032250,"lat":-18.65,"adminName1":"Vava‘u","population":0},{"countryName":"Tonga","adminCode1":"03","fclName":"city, village,...","countryCode":"TO","lng":-174,"fcodeName":"populated place","toponymName":"Vaimalo","fcl":"P","name":"Vaimalo","fcode":"PPL","geonameId":4032244,"lat":-18.6333333,"adminName1":"Vava‘u","population":0},{"countryName":"Tonga","adminCode1":"02","fclName":"city, village,...","countryCode":"TO","lng":-175.2,"fcodeName":"populated place","toponymName":"Vaini","fcl":"P","name":"Vaini","fcode":"PPL","geonameId":4032243,"lat":-21.2,"adminName1":"Tongatapu","population":2976},{"countryName":"Tonga","adminCode1":"03","fclName":"city, village,...","countryCode":"TO","lng":-173.75,"fcodeName":"populated place","toponymName":"Vaipoa","fcl":"P","name":"Vaipoa","fcode":"PPL","geonameId":4032242,"lat":-15.95,"adminName1":"Vava‘u","population":0},{"countryName":"Tonga","adminCode1":"02","fclName":"city, village,...","countryCode":"TO","lng":-175.3166667,"fcodeName":"populated place","toponymName":"Vaotu`u","fcl":"P","name":"Vaotu`u","fcode":"PPL","geonameId":4032234,"lat":-21.15,"adminName1":"Tongatapu","population":0},{"countryName":"Tonga","adminCode1":"02","fclName":"city, village,...","countryCode":"TO","lng":-175.2166667,"fcodeName":"populated place","toponymName":"Veitongo","fcl":"P","name":"Veitongo","fcode":"PPL","geonameId":4032228,"lat":-21.1833333,"adminName1":"Tongatapu","population":0},{"countryName":"Tonga","adminCode1":"02","fclName":"city, village,...","countryCode":"TO","lng":-175.35,"fcodeName":"populated place","toponymName":"`Ahau","fcl":"P","name":"`Ahau","fcode":"PPL","geonameId":4032776,"lat":-21.1,"adminName1":"Tongatapu","population":0},{"countryName":"Tonga","adminCode1":"02","fclName":"city, village,...","countryCode":"TO","lng":-174.95,"fcodeName":"populated place","toponymName":"`Ohonua","fcl":"P","name":"`Ohonua","fcode":"PPL","geonameId":4032384,"lat":-21.3333333,"adminName1":"Tongatapu","population":1241},{"countryName":"Tonga","adminCode1":"02","fclName":"city, village,...","countryCode":"TO","lng":-175.2666667,"fcodeName":"populated place","toponymName":"`Utulau","fcl":"P","name":"`Utulau","fcode":"PPL","geonameId":4032251,"lat":-21.1833333,"adminName1":"Tongatapu","population":0}]}