{"totalResultsCount":15,"geonames":[{"countryName":"Estonia","adminCode1":"01","fclName":"country, state, region,...","countryCode":"EE","lng":24.75,"fcodeName":"first-order administrative division","toponymName":"Harjumaa","fcl":"A","name":"Harjumaa","fcode":"ADM1","geonameId":592170,"lat":59.4166667,"adminName1":"Harjumaa","population":519135},{"countryName":"Estonia","adminCode1":"02","fclName":"country, state, region,...","countryCode":"EE","lng":22.75,"fcodeName":"first-order administrative division","toponymName":"Hiiumaa","fcl":"A","name":"Hiiumaa","fcode":"ADM1","geonameId":592133,"lat":59,"adminName1":"Hiiumaa","population":10275},{"countryName":"Estonia","adminCode1":"03","fclName":"country, state, region,...","countryCode":"EE","lng":27.25,"fcodeName":"first-order administrative division","toponymName":"Ida-Virumaa","fcl":"A","name":"Ida-Virumaa","fcode":"ADM1","geonameId":592075,"lat":59.4,"adminName1":"Ida-Virumaa","population":173514},{"countryName":"Estonia","adminCode1":"04","fclName":"country, state, region,...","countryCode":"EE","lng":25.55,"fcodeName":"first-order administrative division","toponymName":"Järvamaa","fcl":"A","name":"Järvamaa","fcode":"ADM1","geonameId":591961,"lat":58.9,"adminName1":"Järvamaa","population":38142},{"countryName":"Estonia","adminCode1":"05","fclName":"country, state, region,...","countryCode":"EE","lng":26.4,"fcodeName":"first-order administrative division","toponymName":"Jõgevamaa","fcl":"A","name":"Jõgevamaa","fcode":"ADM1","geonameId":591901,"lat":58.75,"adminName1":"Jõgevamaa","population":37546},{"countryName":"Estonia","adminCode1":"08","fclName":"country, state, region,...","countryCode":"EE","lng":26.3333333,"fcodeName":"first-order administrative division","toponymName":"Lääne-Virumaa","fcl":"A","name":"Lääne-Virumaa","fcode":"ADM1","geonameId":590854,"lat":59.3666667,"adminName1":"Lääne-Virumaa","population":66409},{"countryName":"Estonia","adminCode1":"07","fclName":"country, state, region,...","countryCode":"EE","lng":23.55,"fcodeName":"first-order administrative division","toponymName":"Läänemaa","fcl":"A","name":"Läänemaa","fcode":"ADM1","geonameId":590856,"lat":58.9333333,"adminName1":"Läänemaa","population":0},{"countryName":"Estonia","adminCode1":"11","fclName":"country, state, region,...","countryCode":"EE","lng":24.5333333,"fcodeName":"first-order administrative division","toponymName":"Pärnumaa","fcl":"A","name":"Pärnumaa","fcode":"ADM1","geonameId":589576,"lat":58.4,"adminName1":"Pärnumaa","population":0},{"countryName":"Estonia","adminCode1":"12","fclName":"country, state, region,...","countryCode":"EE","lng":27.05,"fcodeName":"first-order administrative division","toponymName":"Põlva","fcl":"A","name":"Põlva","fcode":"ADM1","geonameId":589373,"lat":58.05,"adminName1":"Põlvamaa","population":31730},{"countryName":"Estonia","adminCode1":"13","fclName":"country, state, region,...","countryCode":"EE","lng":24.7833333,"fcodeName":"first-order administrative division","toponymName":"Raplamaa","fcl":"A","name":"Raplamaa","fcode":"ADM1","geonameId":589115,"lat":59.0166667,"adminName1":"Raplamaa","population":37100},{"countryName":"Estonia","adminCode1":"14","fclName":"country, state, region,...","countryCode":"EE","lng":22.4666667,"fcodeName":"first-order administrative division","toponymName":"Saaremaa","fcl":"A","name":"Saaremaa","fcode":"ADM1","geonameId":588879,"lat":58.25,"adminName1":"Saaremaa","population":35275},{"countryName":"Estonia","adminCode1":"18","fclName":"country, state, region,...","countryCode":"EE","lng":26.72496199607849,"fcodeName":"first-order administrative division","toponymName":"Tartumaa","fcl":"A","name":"Tartumaa","fcode":"ADM1","geonameId":588334,"lat":58.38064729004941,"adminName1":"Tartumaa","population":0},{"countryName":"Estonia","adminCode1":"19","fclName":"country, state, region,...","countryCode":"EE","lng":26.0333333,"fcodeName":"first-order administrative division","toponymName":"Valgamaa","fcl":"A","name":"Valgamaa","fcode":"ADM1","geonameId":587875,"lat":57.7833333,"adminName1":"Valgamaa","population":34789},{"countryName":"Estonia","adminCode1":"20","fclName":"country, state, region,...","countryCode":"EE","lng":25.6,"fcodeName":"first-order administrative division","toponymName":"Viljandimaa","fcl":"A","name":"Viljandimaa","fcode":"ADM1","geonameId":587590,"lat":58.4,"adminName1":"Viljandimaa","population":56498},{"countryName":"Estonia","adminCode1":"21","fclName":"country, state, region,...","countryCode":"EE","lng":27.05,"fcodeName":"first-order administrative division","toponymName":"Võrumaa","fcl":"A","name":"Võrumaa","fcode":"ADM1","geonameId":587448,"lat":57.8472222,"adminName1":"Võrumaa","population":38687}]}