{"totalResultsCount":78,"geonames":[{"countryName":"Puerto Rico","adminCode1":"001","fclName":"country, state, region,...","countryCode":"PR","lng":-66.7221187,"fcodeName":"first-order administrative division","toponymName":"Adjuntas","fcl":"A","name":"Adjuntas","fcode":"ADM1","geonameId":4562487,"lat":18.1627363,"adminName1":"Adjuntas","population":0},{"countryName":"Puerto Rico","adminCode1":"003","fclName":"country, state, region,...","countryCode":"PR","lng":-67.1746255,"fcodeName":"first-order administrative division","toponymName":"Aguada","fcl":"A","name":"Aguada","fcode":"ADM1","geonameId":4562503,"lat":18.3605034,"adminName1":"Aguada","population":0},{"countryName":"Puerto Rico","adminCode1":"005","fclName":"country, state, region,...","countryCode":"PR","lng":-67.1540698,"fcodeName":"first-order administrative division","toponymName":"Aguadilla","fcl":"A","name":"Aguadilla","fcode":"ADM1","geonameId":4562512,"lat":18.4274454,"adminName1":"Aguadilla","population":0},{"countryName":"Puerto Rico","adminCode1":"007","fclName":"country, state, region,...","countryCode":"PR","lng":-66.1029442,"fcodeName":"first-order administrative division","toponymName":"Aguas Buenas","fcl":"A","name":"Aguas Buenas","fcode":"ADM1","geonameId":4562516,"lat":18.2568989,"adminName1":"Aguas Buenas","population":0},{"countryName":"Puerto Rico","adminCode1":"009","fclName":"country, state, region,...","countryCode":"PR","lng":-66.2660016,"fcodeName":"first-order administrative division","toponymName":"Aibonito","fcl":"A","name":"Aibonito","fcode":"ADM1","geonameId":4562531,"lat":18.1399594,"adminName1":"Aibonito","population":0},{"countryName":"Puerto Rico","adminCode1":"013","fclName":"country, state, region,...","countryCode":"PR","lng":-66.6746188,"fcodeName":"first-order administrative division","toponymName":"Arecibo","fcl":"A","name":"Arecibo","fcode":"ADM1","geonameId":4562640,"lat":18.4041142,"adminName1":"Arecibo","population":0},{"countryName":"Puerto Rico","adminCode1":"015","fclName":"country, state, region,...","countryCode":"PR","lng":-66.0579424,"fcodeName":"first-order administrative division","toponymName":"Arroyo","fcl":"A","name":"Arroyo","fcode":"ADM1","geonameId":4562682,"lat":18.000799,"adminName1":"Arroyo","population":0},{"countryName":"Puerto Rico","adminCode1":"011","fclName":"country, state, region,...","countryCode":"PR","lng":-67.1274021,"fcodeName":"first-order administrative division","toponymName":"Añasco","fcl":"A","name":"Añasco","fcode":"ADM1","geonameId":4562605,"lat":18.2813404,"adminName1":"Añasco","population":0},{"countryName":"Puerto Rico","adminCode1":"017","fclName":"country, state, region,...","countryCode":"PR","lng":-66.5412833,"fcodeName":"first-order administrative division","toponymName":"Barceloneta","fcl":"A","name":"Barceloneta","fcode":"ADM1","geonameId":4562771,"lat":18.4563347,"adminName1":"Barceloneta","population":0},{"countryName":"Puerto Rico","adminCode1":"019","fclName":"country, state, region,...","countryCode":"PR","lng":-66.3121136,"fcodeName":"first-order administrative division","toponymName":"Barranquitas","fcl":"A","name":"Barranquitas","fcode":"ADM1","geonameId":4562779,"lat":18.2035681,"adminName1":"Barranquitas","population":0},{"countryName":"Puerto Rico","adminCode1":"021","fclName":"country, state, region,...","countryCode":"PR","lng":-66.1704449,"fcodeName":"first-order administrative division","toponymName":"Bayamón Municipio","fcl":"A","name":"Bayamón Municipio","fcode":"ADM1","geonameId":4562837,"lat":18.3521728,"adminName1":"Bayamón","population":0},{"countryName":"Puerto Rico","adminCode1":"023","fclName":"country, state, region,...","countryCode":"PR","lng":-67.1468456,"fcodeName":"first-order administrative division","toponymName":"Cabo Rojo Municipio","fcl":"A","name":"Cabo Rojo Municipio","fcode":"ADM1","geonameId":4562997,"lat":18.0563499,"adminName1":"Cabo Rojo","population":0},{"countryName":"Puerto Rico","adminCode1":"025","fclName":"country, state, region,...","countryCode":"PR","lng":-66.0496099,"fcodeName":"first-order administrative division","toponymName":"Caguas Municipio","fcl":"A","name":"Caguas Municipio","fcode":"ADM1","geonameId":4563011,"lat":18.2132895,"adminName1":"Caguas","population":0},{"countryName":"Puerto Rico","adminCode1":"027","fclName":"country, state, region,...","countryCode":"PR","lng":-66.8593433,"fcodeName":"first-order administrative division","toponymName":"Camuy Municipio","fcl":"A","name":"Camuy Municipio","fcode":"ADM1","geonameId":4563065,"lat":18.42578,"adminName1":"Camuy","population":0},{"countryName":"Puerto Rico","adminCode1":"029","fclName":"country, state, region,...","countryCode":"PR","lng":-65.8871085,"fcodeName":"first-order administrative division","toponymName":"Canóvanas Municipio","fcl":"A","name":"Canóvanas Municipio","fcode":"ADM1","geonameId":4563169,"lat":18.3382843,"adminName1":"Canovanas","population":0},{"countryName":"Puerto Rico","adminCode1":"031","fclName":"country, state, region,...","countryCode":"PR","lng":-65.9579427,"fcodeName":"first-order administrative division","toponymName":"Carolina Municipio","fcl":"A","name":"Carolina Municipio","fcode":"ADM1","geonameId":4563244,"lat":18.3757822,"adminName1":"Carolina","population":0},{"countryName":"Puerto Rico","adminCode1":"033","fclName":"country, state, region,...","countryCode":"PR","lng":-66.137111,"fcodeName":"first-order administrative division","toponymName":"Cataño Municipio","fcl":"A","name":"Cataño Municipio","fcode":"ADM1","geonameId":4563299,"lat":18.4355021,"adminName1":"Catano","population":0},{"countryName":"Puerto Rico","adminCode1":"035","fclName":"country, state, region,...","countryCode":"PR","lng":-66.1537776,"fcodeName":"first-order administrative division","toponymName":"Cayey Municipio","fcl":"A","name":"Cayey Municipio","fcode":"ADM1","geonameId":4563309,"lat":18.1035721,"adminName1":"Cayey","population":0},{"countryName":"Puerto Rico","adminCode1":"037","fclName":"country, state, region,...","countryCode":"PR","lng":-65.6718284,"fcodeName":"first-order administrative division","toponymName":"Ceiba Municipio","fcl":"A","name":"Ceiba Municipio","fcode":"ADM1","geonameId":4563380,"lat":18.2605116,"adminName1":"Ceiba","population":0},{"countryName":"Puerto Rico","adminCode1":"039","fclName":"country, state, region,...","countryCode":"PR","lng":-66.5162831,"fcodeName":"first-order administrative division","toponymName":"Ciales Municipio","fcl":"A","name":"Ciales Municipio","fcode":"ADM1","geonameId":4563774,"lat":18.2916195,"adminName1":"Ciales","population":0},{"countryName":"Puerto Rico","adminCode1":"041","fclName":"country, state, region,...","countryCode":"PR","lng":-66.1621113,"fcodeName":"first-order administrative division","toponymName":"Cidra Municipio","fcl":"A","name":"Cidra Municipio","fcode":"ADM1","geonameId":4563778,"lat":18.1757914,"adminName1":"Cidra","population":0},{"countryName":"Puerto Rico","adminCode1":"043","fclName":"country, state, region,...","countryCode":"PR","lng":-66.3621142,"fcodeName":"first-order administrative division","toponymName":"Coamo Municipio","fcl":"A","name":"Coamo Municipio","fcode":"ADM1","geonameId":4563812,"lat":18.0980166,"adminName1":"Coamo","population":0},{"countryName":"Puerto Rico","adminCode1":"045","fclName":"country, state, region,...","countryCode":"PR","lng":-66.2218345,"fcodeName":"first-order administrative division","toponymName":"Comerío Municipio","fcl":"A","name":"Comerío Municipio","fcode":"ADM1","geonameId":4563921,"lat":18.2271782,"adminName1":"Comerio","population":0},{"countryName":"Puerto Rico","adminCode1":"047","fclName":"country, state, region,...","countryCode":"PR","lng":-66.3260025,"fcodeName":"first-order administrative division","toponymName":"Corozal Municipio","fcl":"A","name":"Corozal Municipio","fcode":"ADM1","geonameId":4564004,"lat":18.3091191,"adminName1":"Corozal","population":0},{"countryName":"Puerto Rico","adminCode1":"049","fclName":"country, state, region,...","countryCode":"PR","lng":-65.287102,"fcodeName":"first-order administrative division","toponymName":"Culebra Municipio","fcl":"A","name":"Culebra Municipio","fcode":"ADM1","geonameId":4564071,"lat":18.3188448,"adminName1":"Culebra","population":0},{"countryName":"Puerto Rico","adminCode1":"051","fclName":"country, state, region,...","countryCode":"PR","lng":-66.2829464,"fcodeName":"first-order administrative division","toponymName":"Dorado Municipio","fcl":"A","name":"Dorado Municipio","fcode":"ADM1","geonameId":4564134,"lat":18.4396689,"adminName1":"Dorado","population":0},{"countryName":"Puerto Rico","adminCode1":"053","fclName":"country, state, region,...","countryCode":"PR","lng":-65.675995,"fcodeName":"first-order administrative division","toponymName":"Fajardo Municipio","fcl":"A","name":"Fajardo Municipio","fcode":"ADM1","geonameId":4564949,"lat":18.3105097,"adminName1":"Fajardo","population":0},{"countryName":"Puerto Rico","adminCode1":"054","fclName":"country, state, region,...","countryCode":"PR","lng":-66.5621169,"fcodeName":"first-order administrative division","toponymName":"Florida Municipio","fcl":"A","name":"Florida Municipio","fcode":"ADM1","geonameId":4564993,"lat":18.3605051,"adminName1":"Florida","population":0},{"countryName":"Puerto Rico","adminCode1":"057","fclName":"country, state, region,...","countryCode":"PR","lng":-66.1307215,"fcodeName":"first-order administrative division","toponymName":"Guayama Municipio","fcl":"A","name":"Guayama Municipio","fcode":"ADM1","geonameId":4565107,"lat":18.0166314,"adminName1":"Guayama","population":0},{"countryName":"Puerto Rico","adminCode1":"059","fclName":"country, state, region,...","countryCode":"PR","lng":-66.7898977,"fcodeName":"first-order administrative division","toponymName":"Guayanilla Municipio","fcl":"A","name":"Guayanilla Municipio","fcode":"ADM1","geonameId":4565112,"lat":18.0541297,"adminName1":"Guayanilla","population":0},{"countryName":"Puerto Rico","adminCode1":"061","fclName":"country, state, region,...","countryCode":"PR","lng":-66.1162777,"fcodeName":"first-order administrative division","toponymName":"Guaynabo Municipio","fcl":"A","name":"Guaynabo Municipio","fcode":"ADM1","geonameId":4565120,"lat":18.3410621,"adminName1":"Guaynabo","population":0},{"countryName":"Puerto Rico","adminCode1":"063","fclName":"country, state, region,...","countryCode":"PR","lng":-65.971831,"fcodeName":"first-order administrative division","toponymName":"Gurabo Municipio","fcl":"A","name":"Gurabo Municipio","fcode":"ADM1","geonameId":4565126,"lat":18.2716201,"adminName1":"Gurabo","population":0},{"countryName":"Puerto Rico","adminCode1":"055","fclName":"country, state, region,...","countryCode":"PR","lng":-66.9121205,"fcodeName":"first-order administrative division","toponymName":"Guánica Municipio","fcl":"A","name":"Guánica Municipio","fcode":"ADM1","geonameId":4565091,"lat":17.988299,"adminName1":"Guanica","population":0},{"countryName":"Puerto Rico","adminCode1":"065","fclName":"country, state, region,...","countryCode":"PR","lng":-66.7932314,"fcodeName":"first-order administrative division","toponymName":"Hatillo Municipio","fcl":"A","name":"Hatillo Municipio","fcode":"ADM1","geonameId":4565348,"lat":18.4077255,"adminName1":"Hatillo","population":0},{"countryName":"Puerto Rico","adminCode1":"067","fclName":"country, state, region,...","countryCode":"PR","lng":-67.1162908,"fcodeName":"first-order administrative division","toponymName":"Hormigueros Municipio","fcl":"A","name":"Hormigueros Municipio","fcode":"ADM1","geonameId":4565381,"lat":18.1416243,"adminName1":"Hormigueros","population":0},{"countryName":"Puerto Rico","adminCode1":"069","fclName":"country, state, region,...","countryCode":"PR","lng":-65.8121068,"fcodeName":"first-order administrative division","toponymName":"Humacao Municipio","fcl":"A","name":"Humacao Municipio","fcode":"ADM1","geonameId":4565449,"lat":18.1480163,"adminName1":"Humacao","population":0},{"countryName":"Puerto Rico","adminCode1":"075","fclName":"country, state, region,...","countryCode":"PR","lng":-66.4926721,"fcodeName":"first-order administrative division","toponymName":"Juana Díaz Municipio","fcl":"A","name":"Juana Díaz Municipio","fcode":"ADM1","geonameId":4565713,"lat":18.0480186,"adminName1":"Juana Diaz","population":0},{"countryName":"Puerto Rico","adminCode1":"079","fclName":"country, state, region,...","countryCode":"PR","lng":-67.0399,"fcodeName":"first-order administrative division","toponymName":"Lajas Municipio","fcl":"A","name":"Lajas Municipio","fcode":"ADM1","geonameId":4565900,"lat":18.0132972,"adminName1":"Lajas","population":0},{"countryName":"Puerto Rico","adminCode1":"081","fclName":"country, state, region,...","countryCode":"PR","lng":-66.8690654,"fcodeName":"first-order administrative division","toponymName":"Lares Municipio","fcl":"A","name":"Lares Municipio","fcode":"ADM1","geonameId":4565910,"lat":18.2702312,"adminName1":"Lares","population":0},{"countryName":"Puerto Rico","adminCode1":"083","fclName":"country, state, region,...","countryCode":"PR","lng":-66.9857335,"fcodeName":"first-order administrative division","toponymName":"Las Marías Municipio","fcl":"A","name":"Las Marías Municipio","fcode":"ADM1","geonameId":4565961,"lat":18.2388433,"adminName1":"Las Marias","population":0},{"countryName":"Puerto Rico","adminCode1":"085","fclName":"country, state, region,...","countryCode":"PR","lng":-65.8704409,"fcodeName":"first-order administrative division","toponymName":"Las Piedras Municipio","fcl":"A","name":"Las Piedras Municipio","fcode":"ADM1","geonameId":4565981,"lat":18.1882915,"adminName1":"Las Piedras","population":0},{"countryName":"Puerto Rico","adminCode1":"087","fclName":"country, state, region,...","countryCode":"PR","lng":-65.8926646,"fcodeName":"first-order administrative division","toponymName":"Loíza Municipio","fcl":"A","name":"Loíza Municipio","fcode":"ADM1","geonameId":4566025,"lat":18.434113,"adminName1":"Loiza","population":0},{"countryName":"Puerto Rico","adminCode1":"089","fclName":"country, state, region,...","countryCode":"PR","lng":-65.7246067,"fcodeName":"first-order administrative division","toponymName":"Luquillo Municipio","fcl":"A","name":"Luquillo Municipio","fcode":"ADM1","geonameId":4566106,"lat":18.3396746,"adminName1":"Luquillo","population":0},{"countryName":"Puerto Rico","adminCode1":"091","fclName":"country, state, region,...","countryCode":"PR","lng":-66.4926715,"fcodeName":"first-order administrative division","toponymName":"Manatí Municipio","fcl":"A","name":"Manatí Municipio","fcode":"ADM1","geonameId":4566138,"lat":18.4188364,"adminName1":"Manati","population":0},{"countryName":"Puerto Rico","adminCode1":"093","fclName":"country, state, region,...","countryCode":"PR","lng":-66.9454552,"fcodeName":"first-order administrative division","toponymName":"Maricao Municipio","fcl":"A","name":"Maricao Municipio","fcode":"ADM1","geonameId":4566180,"lat":18.1730129,"adminName1":"Maricao","population":0},{"countryName":"Puerto Rico","adminCode1":"095","fclName":"country, state, region,...","countryCode":"PR","lng":-65.9273849,"fcodeName":"first-order administrative division","toponymName":"Maunabo Municipio","fcl":"A","name":"Maunabo Municipio","fcode":"ADM1","geonameId":4566209,"lat":18.0169101,"adminName1":"Maunabo","population":0},{"countryName":"Puerto Rico","adminCode1":"097","fclName":"country, state, region,...","countryCode":"PR","lng":-67.102402,"fcodeName":"first-order administrative division","toponymName":"Mayagüez Municipio","fcl":"A","name":"Mayagüez Municipio","fcode":"ADM1","geonameId":4566217,"lat":18.2049551,"adminName1":"Mayaguez","population":0},{"countryName":"Puerto Rico","adminCode1":"099","fclName":"country, state, region,...","countryCode":"PR","lng":-67.0843463,"fcodeName":"first-order administrative division","toponymName":"Moca Municipio","fcl":"A","name":"Moca Municipio","fcode":"ADM1","geonameId":4566272,"lat":18.3855026,"adminName1":"Moca","population":0},{"countryName":"Puerto Rico","adminCode1":"101","fclName":"country, state, region,...","countryCode":"PR","lng":-66.4176705,"fcodeName":"first-order administrative division","toponymName":"Morovis Municipio","fcl":"A","name":"Morovis Municipio","fcode":"ADM1","geonameId":4566334,"lat":18.3188408,"adminName1":"Morovis","population":0},{"countryName":"Puerto Rico","adminCode1":"071","fclName":"country, state, region,...","countryCode":"PR","lng":-67.0243462,"fcodeName":"first-order administrative division","toponymName":"Municipio de Isabela","fcl":"A","name":"Municipio de Isabela","fcode":"ADM1","geonameId":4565581,"lat":18.500776,"adminName1":"Isabela","population":0},{"countryName":"Puerto Rico","adminCode1":"073","fclName":"country, state, region,...","countryCode":"PR","lng":-66.5915617,"fcodeName":"first-order administrative division","toponymName":"Municipio de Jayuya","fcl":"A","name":"Municipio de Jayuya","fcode":"ADM1","geonameId":4565684,"lat":18.2185674,"adminName1":"Municipio de Jayuya","population":0},{"countryName":"Puerto Rico","adminCode1":"077","fclName":"country, state, region,...","countryCode":"PR","lng":-65.920997,"fcodeName":"first-order administrative division","toponymName":"Municipio de Juncos","fcl":"A","name":"Municipio de Juncos","fcode":"ADM1","geonameId":4565720,"lat":18.2274558,"adminName1":"Municipio de Juncos","population":0},{"countryName":"Puerto Rico","adminCode1":"103","fclName":"country, state, region,...","countryCode":"PR","lng":-65.7598846,"fcodeName":"first-order administrative division","toponymName":"Naguabo Municipio","fcl":"A","name":"Naguabo Municipio","fcode":"ADM1","geonameId":4566397,"lat":18.2313459,"adminName1":"Naguabo","population":0},{"countryName":"Puerto Rico","adminCode1":"105","fclName":"country, state, region,...","countryCode":"PR","lng":-66.2551683,"fcodeName":"first-order administrative division","toponymName":"Naranjito Municipio","fcl":"A","name":"Naranjito Municipio","fcode":"ADM1","geonameId":4566403,"lat":18.2896755,"adminName1":"Naranjito","population":0},{"countryName":"Puerto Rico","adminCode1":"107","fclName":"country, state, region,...","countryCode":"PR","lng":-66.4371155,"fcodeName":"first-order administrative division","toponymName":"Orocovis Municipio","fcl":"A","name":"Orocovis Municipio","fcode":"ADM1","geonameId":4566456,"lat":18.2188451,"adminName1":"Orocovis","population":0},{"countryName":"Puerto Rico","adminCode1":"109","fclName":"country, state, region,...","countryCode":"PR","lng":-66.0176642,"fcodeName":"first-order administrative division","toponymName":"Patillas Municipio","fcl":"A","name":"Patillas Municipio","fcode":"ADM1","geonameId":4566654,"lat":18.0416308,"adminName1":"Patillas","population":0},{"countryName":"Puerto Rico","adminCode1":"111","fclName":"country, state, region,...","countryCode":"PR","lng":-66.7176745,"fcodeName":"first-order administrative division","toponymName":"Peñuelas Municipio","fcl":"A","name":"Peñuelas Municipio","fcode":"ADM1","geonameId":4566689,"lat":18.0702401,"adminName1":"Penuelas","population":0},{"countryName":"Puerto Rico","adminCode1":"113","fclName":"country, state, region,...","countryCode":"PR","lng":-66.6185063,"fcodeName":"first-order administrative division","toponymName":"Ponce Municipio","fcl":"A","name":"Ponce Municipio","fcode":"ADM1","geonameId":4566886,"lat":18.0730181,"adminName1":"Ponce","population":445470},{"countryName":"Puerto Rico","adminCode1":"115","fclName":"country, state, region,...","countryCode":"PR","lng":-66.9246224,"fcodeName":"first-order administrative division","toponymName":"Quebradillas Municipio","fcl":"A","name":"Quebradillas Municipio","fcode":"ADM1","geonameId":4567734,"lat":18.439668,"adminName1":"Quebradillas","population":0},{"countryName":"Puerto Rico","adminCode1":"117","fclName":"country, state, region,...","countryCode":"PR","lng":-67.2371252,"fcodeName":"first-order administrative division","toponymName":"Rincón Municipio","fcl":"A","name":"Rincón Municipio","fcode":"ADM1","geonameId":4567727,"lat":18.33967,"adminName1":"Rincon","population":0},{"countryName":"Puerto Rico","adminCode1":"119","fclName":"country, state, region,...","countryCode":"PR","lng":-65.8176634,"fcodeName":"first-order administrative division","toponymName":"Río Grande Municipio","fcl":"A","name":"Río Grande Municipio","fcode":"ADM1","geonameId":4567823,"lat":18.3416179,"adminName1":"Rio Grande","population":0},{"countryName":"Puerto Rico","adminCode1":"121","fclName":"country, state, region,...","countryCode":"PR","lng":-66.9496216,"fcodeName":"first-order administrative division","toponymName":"Sabana Grande Municipio","fcl":"A","name":"Sabana Grande Municipio","fcode":"ADM1","geonameId":4568015,"lat":18.0938496,"adminName1":"Sabana Grande","population":0},{"countryName":"Puerto Rico","adminCode1":"123","fclName":"country, state, region,...","countryCode":"PR","lng":-66.2537789,"fcodeName":"first-order administrative division","toponymName":"Salinas Municipio","fcl":"A","name":"Salinas Municipio","fcode":"ADM1","geonameId":4568043,"lat":18.0174642,"adminName1":"Salinas","population":0},{"countryName":"Puerto Rico","adminCode1":"125","fclName":"country, state, region,...","countryCode":"PR","lng":-67.0357343,"fcodeName":"first-order administrative division","toponymName":"San Germán Municipio","fcl":"A","name":"San Germán Municipio","fcode":"ADM1","geonameId":4568105,"lat":18.1146815,"adminName1":"San German","population":0},{"countryName":"Puerto Rico","adminCode1":"127","fclName":"country, state, region,...","countryCode":"PR","lng":-66.0621103,"fcodeName":"first-order administrative division","toponymName":"San Juan","fcl":"A","name":"San Juan","fcode":"ADM1","geonameId":4568138,"lat":18.3910596,"adminName1":"San Juan","population":431285},{"countryName":"Puerto Rico","adminCode1":"129","fclName":"country, state, region,...","countryCode":"PR","lng":-65.9746082,"fcodeName":"first-order administrative division","toponymName":"San Lorenzo Municipio","fcl":"A","name":"San Lorenzo Municipio","fcode":"ADM1","geonameId":4568150,"lat":18.1549592,"adminName1":"San Lorenzo","population":0},{"countryName":"Puerto Rico","adminCode1":"131","fclName":"country, state, region,...","countryCode":"PR","lng":-66.9746224,"fcodeName":"first-order administrative division","toponymName":"San Sebastián Municipio","fcl":"A","name":"San Sebastián Municipio","fcode":"ADM1","geonameId":4568177,"lat":18.329117,"adminName1":"San Sebastian","population":0},{"countryName":"Puerto Rico","adminCode1":"133","fclName":"country, state, region,...","countryCode":"PR","lng":-66.3871139,"fcodeName":"first-order administrative division","toponymName":"Santa Isabel Municipio","fcl":"A","name":"Santa Isabel Municipio","fcode":"ADM1","geonameId":4568213,"lat":17.9966318,"adminName1":"Santa Isabel Municipio","population":0},{"countryName":"Puerto Rico","adminCode1":"135","fclName":"country, state, region,...","countryCode":"PR","lng":-66.2537794,"fcodeName":"first-order administrative division","toponymName":"Toa Alta Municipio","fcl":"A","name":"Toa Alta Municipio","fcode":"ADM1","geonameId":4568404,"lat":18.3660611,"adminName1":"Toa Alta","population":0},{"countryName":"Puerto Rico","adminCode1":"137","fclName":"country, state, region,...","countryCode":"PR","lng":-66.259613,"fcodeName":"first-order administrative division","toponymName":"Toa Baja Municipio","fcl":"A","name":"Toa Baja Municipio","fcode":"ADM1","geonameId":4568408,"lat":18.443835,"adminName1":"Toa Baja","population":0},{"countryName":"Puerto Rico","adminCode1":"139","fclName":"country, state, region,...","countryCode":"PR","lng":-66.0051653,"fcodeName":"first-order administrative division","toponymName":"Trujillo Alto Municipio","fcl":"A","name":"Trujillo Alto Municipio","fcode":"ADM1","geonameId":4568452,"lat":18.3416169,"adminName1":"Trujillo Alto","population":0},{"countryName":"Puerto Rico","adminCode1":"141","fclName":"country, state, region,...","countryCode":"PR","lng":-66.6996186,"fcodeName":"first-order administrative division","toponymName":"Utuado Municipio","fcl":"A","name":"Utuado Municipio","fcode":"ADM1","geonameId":4568491,"lat":18.2730091,"adminName1":"Utuado","population":0},{"countryName":"Puerto Rico","adminCode1":"143","fclName":"country, state, region,...","countryCode":"PR","lng":-66.3329471,"fcodeName":"first-order administrative division","toponymName":"Vega Alta Municipio","fcl":"A","name":"Vega Alta Municipio","fcode":"ADM1","geonameId":4568529,"lat":18.4105037,"adminName1":"Vega Alta","population":0},{"countryName":"Puerto Rico","adminCode1":"145","fclName":"country, state, region,...","countryCode":"PR","lng":-66.3996146,"fcodeName":"first-order administrative division","toponymName":"Vega Baja Municipio","fcl":"A","name":"Vega Baja Municipio","fcode":"ADM1","geonameId":4568534,"lat":18.4257807,"adminName1":"Vega Baja","population":0},{"countryName":"Puerto Rico","adminCode1":"147","fclName":"country, state, region,...","countryCode":"PR","lng":-65.4371031,"fcodeName":"first-order administrative division","toponymName":"Vieques Municipio","fcl":"A","name":"Vieques Municipio","fcode":"ADM1","geonameId":4568924,"lat":18.12913,"adminName1":"Vieques","population":0},{"countryName":"Puerto Rico","adminCode1":"149","fclName":"country, state, region,...","countryCode":"PR","lng":-66.477394,"fcodeName":"first-order administrative division","toponymName":"Villalba Municipio","fcl":"A","name":"Villalba Municipio","fcode":"ADM1","geonameId":4568684,"lat":18.1291267,"adminName1":"Villalba","population":0},{"countryName":"Puerto Rico","adminCode1":"151","fclName":"country, state, region,...","countryCode":"PR","lng":-65.8871068,"fcodeName":"first-order administrative division","toponymName":"Yabucoa Municipio","fcl":"A","name":"Yabucoa Municipio","fcode":"ADM1","geonameId":4568909,"lat":18.073019,"adminName1":"Yabucoa","population":0},{"countryName":"Puerto Rico","adminCode1":"153","fclName":"country, state, region,...","countryCode":"PR","lng":-66.8551763,"fcodeName":"first-order administrative division","toponymName":"Yauco Municipio","fcl":"A","name":"Yauco Municipio","fcode":"ADM1","geonameId":4568918,"lat":18.0785731,"adminName1":"Yauco","population":0}]}