{"totalResultsCount":10,"geonames":[{"countryName":"Lithuania","adminCode1":"56","fclName":"country, state, region,...","countryCode":"LT","lng":24.1666667,"fcodeName":"first-order administrative division","toponymName":"Alytaus Apskritis","fcl":"A","numberOfChildren":7,"name":"Alytaus Apskritis","fcode":"ADM1","geonameId":864389,"lat":54.1666667,"adminName1":"Alytaus Apskritis","population":0},{"countryName":"Lithuania","adminCode1":"57","fclName":"country, state, region,...","countryCode":"LT","lng":24,"fcodeName":"first-order administrative division","toponymName":"Kauno Apskritis","fcl":"A","numberOfChildren":13,"name":"Kauno Apskritis","fcode":"ADM1","geonameId":864477,"lat":55.1666667,"adminName1":"Kauno Apskritis","population":0},{"countryName":"Lithuania","adminCode1":"58","fclName":"country, state, region,...","countryCode":"LT","lng":21.3333333,"fcodeName":"first-order administrative division","toponymName":"Klaipėdos Apskritis","fcl":"A","numberOfChildren":11,"name":"Klaipėdos Apskritis","fcode":"ADM1","geonameId":864478,"lat":55.6666667,"adminName1":"Klaipėdos Apskritis","population":0},{"countryName":"Lithuania","adminCode1":"59","fclName":"country, state, region,...","countryCode":"LT","lng":23.25,"fcodeName":"first-order administrative division","toponymName":"Marijampolės Apskritis","fcl":"A","numberOfChildren":6,"name":"Marijampolės Apskritis","fcode":"ADM1","geonameId":864479,"lat":54.75,"adminName1":"Marijampolės Apskritis","population":0},{"countryName":"Lithuania","adminCode1":"60","fclName":"country, state, region,...","countryCode":"LT","lng":24.8333333,"fcodeName":"first-order administrative division","toponymName":"Panevėžio Apskritis","fcl":"A","numberOfChildren":10,"name":"Panevėžio Apskritis","fcode":"ADM1","geonameId":864480,"lat":55.9166667,"adminName1":"Panevėžio Apskritis","population":0},{"countryName":"Lithuania","adminCode1":"62","fclName":"country, state, region,...","countryCode":"LT","lng":22.5,"fcodeName":"first-order administrative division","toponymName":"Tauragės Apskritis","fcl":"A","numberOfChildren":6,"name":"Tauragės Apskritis","fcode":"ADM1","geonameId":864482,"lat":55.3333333,"adminName1":"Tauragės Apskritis","population":0},{"countryName":"Lithuania","adminCode1":"63","fclName":"country, state, region,...","countryCode":"LT","lng":22.1666667,"fcodeName":"first-order administrative division","toponymName":"Telšių Apskritis","fcl":"A","numberOfChildren":6,"name":"Telšių Apskritis","fcode":"ADM1","geonameId":864483,"lat":56.0833333,"adminName1":"Telšių Apskritis","population":0},{"countryName":"Lithuania","adminCode1":"64","fclName":"country, state, region,...","countryCode":"LT","lng":25.75,"fcodeName":"first-order administrative division","toponymName":"Utenos Apskritis","fcl":"A","numberOfChildren":11,"name":"Utenos Apskritis","fcode":"ADM1","geonameId":864484,"lat":55.5,"adminName1":"Utenos Apskritis","population":0},{"countryName":"Lithuania","adminCode1":"65","fclName":"country, state, region,...","countryCode":"LT","lng":25.3333333,"fcodeName":"first-order administrative division","toponymName":"Vilniaus Apskritis","fcl":"A","numberOfChildren":12,"name":"Vilniaus Apskritis","fcode":"ADM1","geonameId":864485,"lat":54.8333333,"adminName1":"Vilniaus Apskritis","population":0},{"countryName":"Lithuania","adminCode1":"61","fclName":"country, state, region,...","countryCode":"LT","lng":23.3333333,"fcodeName":"first-order administrative division","toponymName":"Šiaulių Apskritis","fcl":"A","numberOfChildren":12,"name":"Šiaulių Apskritis","fcode":"ADM1","geonameId":864481,"lat":56,"adminName1":"Šiaulių Apskritis","population":0}]}