{"totalResultsCount":84,"geonames":[{"countryName":"Macedonia","adminCode1":"29","fclName":"country, state, region,...","countryCode":"MK","lng":21.3333333,"fcodeName":"first-order administrative division","toponymName":"Opstina Gjorce Petrov","fcl":"A","name":"Opstina Gjorce Petrov","fcode":"ADM1","geonameId":863850,"lat":42.05,"adminName1":"Opstina Gjorce Petrov","population":0},{"countryName":"Macedonia","adminCode1":"59","fclName":"country, state, region,...","countryCode":"MK","lng":21.6,"fcodeName":"first-order administrative division","toponymName":"Општина Липково","fcl":"A","name":"Opstina Lipkovo","fcode":"ADM1","geonameId":863875,"lat":42.1666667,"adminName1":"Opstina Lipkovo","population":0},{"countryName":"Macedonia","adminCode1":"85","fclName":"country, state, region,...","countryCode":"MK","lng":22.15,"fcodeName":"first-order administrative division","toponymName":"Општина Ранковце","fcl":"A","name":"Opstina Rankovce","fcode":"ADM1","geonameId":863891,"lat":42.2166667,"adminName1":"Opstina Rankovce","population":0},{"countryName":"Macedonia","adminCode1":"F2","fclName":"country, state, region,...","countryCode":"MK","lng":21.45,"fcodeName":"first-order administrative division","toponymName":"Opština Aerodrom","fcl":"A","name":"Opština Aerodrom","fcode":"ADM1","geonameId":7056266,"lat":42,"adminName1":"Opština Aerodrom","population":0},{"countryName":"Macedonia","adminCode1":"01","fclName":"country, state, region,...","countryCode":"MK","lng":21.5833333,"fcodeName":"first-order administrative division","toponymName":"Opština Aračinovo","fcl":"A","name":"Opština Aračinovo","fcode":"ADM1","geonameId":863831,"lat":42.05,"adminName1":"Aračinovo","population":0},{"countryName":"Macedonia","adminCode1":"04","fclName":"country, state, region,...","countryCode":"MK","lng":22.8166667,"fcodeName":"first-order administrative division","toponymName":"Opština Berovo","fcl":"A","name":"Opština Berovo","fcode":"ADM1","geonameId":863485,"lat":41.65,"adminName1":"Berovo","population":0},{"countryName":"Macedonia","adminCode1":"06","fclName":"country, state, region,...","countryCode":"MK","lng":21.3166667,"fcodeName":"first-order administrative division","toponymName":"Opština Bitola","fcl":"A","name":"Opština Bitola","fcode":"ADM1","geonameId":863486,"lat":41.0166667,"adminName1":"Bitola","population":0},{"countryName":"Macedonia","adminCode1":"08","fclName":"country, state, region,...","countryCode":"MK","lng":22.6,"fcodeName":"first-order administrative division","toponymName":"Opština Bogdanci","fcl":"A","name":"Opština Bogdanci","fcode":"ADM1","geonameId":862950,"lat":41.2,"adminName1":"Bogdanci","population":0},{"countryName":"Macedonia","adminCode1":"C7","fclName":"country, state, region,...","countryCode":"MK","lng":20.8666667,"fcodeName":"first-order administrative division","toponymName":"Opština Bogovinje","fcl":"A","name":"Opština Bogovinje","fcode":"ADM1","geonameId":863834,"lat":41.9333333,"adminName1":"Bogovinje","population":0},{"countryName":"Macedonia","adminCode1":"11","fclName":"country, state, region,...","countryCode":"MK","lng":22.7833333,"fcodeName":"first-order administrative division","toponymName":"Opština Bosilovo","fcl":"A","name":"Opština Bosilovo","fcode":"ADM1","geonameId":862946,"lat":41.4666667,"adminName1":"Bosilovo","population":0},{"countryName":"Macedonia","adminCode1":"12","fclName":"country, state, region,...","countryCode":"MK","lng":21.0333333,"fcodeName":"first-order administrative division","toponymName":"Opština Brvenica","fcl":"A","name":"Opština Brvenica","fcode":"ADM1","geonameId":863835,"lat":41.8833333,"adminName1":"Brvenica","population":0},{"countryName":"Macedonia","adminCode1":"F3","fclName":"country, state, region,...","countryCode":"MK","lng":21.466667,"fcodeName":"first-order administrative division","toponymName":"Opština Butel","fcl":"A","name":"Opština Butel","fcode":"ADM1","geonameId":7056269,"lat":42.083333,"adminName1":"Opština Butel","population":0},{"countryName":"Macedonia","adminCode1":"D1","fclName":"country, state, region,...","countryCode":"MK","lng":21.45,"fcodeName":"first-order administrative division","toponymName":"Opština Centar","fcl":"A","name":"Opština Centar","fcode":"ADM1","geonameId":863840,"lat":42,"adminName1":"Centar","population":0},{"countryName":"Macedonia","adminCode1":"18","fclName":"country, state, region,...","countryCode":"MK","lng":20.5833333,"fcodeName":"first-order administrative division","toponymName":"Opština Centar Župa","fcl":"A","name":"Opština Centar Župa","fcode":"ADM1","geonameId":863841,"lat":41.4666667,"adminName1":"Centar Župa","population":0},{"countryName":"Macedonia","adminCode1":"D2","fclName":"country, state, region,...","countryCode":"MK","lng":20.5166667,"fcodeName":"first-order administrative division","toponymName":"Opština Debar","fcl":"A","name":"Opština Debar","fcode":"ADM1","geonameId":863843,"lat":41.5,"adminName1":"Debar","population":0},{"countryName":"Macedonia","adminCode1":"F4","fclName":"country, state, region,...","countryCode":"MK","lng":20.822222,"fcodeName":"first-order administrative division","toponymName":"Opština Debarca","fcl":"A","name":"Opština Debarca","fcode":"ADM1","geonameId":7056271,"lat":41.334167,"adminName1":"Opština Debarca","population":0},{"countryName":"Macedonia","adminCode1":"22","fclName":"country, state, region,...","countryCode":"MK","lng":22.7666667,"fcodeName":"first-order administrative division","toponymName":"Opština Delčevo","fcl":"A","name":"Opština Delčevo","fcode":"ADM1","geonameId":863844,"lat":41.9333333,"adminName1":"Delčevo","population":0},{"countryName":"Macedonia","adminCode1":"D3","fclName":"country, state, region,...","countryCode":"MK","lng":21.2166667,"fcodeName":"first-order administrative division","toponymName":"Opština Demir Hisar","fcl":"A","name":"Opština Demir Hisar","fcode":"ADM1","geonameId":863846,"lat":41.2333333,"adminName1":"Demir Hisar","population":0},{"countryName":"Macedonia","adminCode1":"25","fclName":"country, state, region,...","countryCode":"MK","lng":22.25,"fcodeName":"first-order administrative division","toponymName":"Opština Demir Kapija","fcl":"A","name":"Opština Demir Kapija","fcode":"ADM1","geonameId":862961,"lat":41.3833333,"adminName1":"Demir Kapija","population":0},{"countryName":"Macedonia","adminCode1":"E5","fclName":"country, state, region,...","countryCode":"MK","lng":22.7,"fcodeName":"first-order administrative division","toponymName":"Opština Dojran","fcl":"A","name":"Opština Dojran","fcode":"ADM1","geonameId":862949,"lat":41.2333333,"adminName1":"Dojran","population":0},{"countryName":"Macedonia","adminCode1":"28","fclName":"country, state, region,...","countryCode":"MK","lng":21.4333333,"fcodeName":"first-order administrative division","toponymName":"Opština Dolneni","fcl":"A","name":"Opština Dolneni","fcode":"ADM1","geonameId":863849,"lat":41.4833333,"adminName1":"Dolneni","population":0},{"countryName":"Macedonia","adminCode1":"30","fclName":"country, state, region,...","countryCode":"MK","lng":20.9166667,"fcodeName":"first-order administrative division","toponymName":"Opština Drugovo","fcl":"A","name":"Opština Drugovo","fcode":"ADM1","geonameId":863851,"lat":41.4666667,"adminName1":"Drugovo","population":0},{"countryName":"Macedonia","adminCode1":"32","fclName":"country, state, region,...","countryCode":"MK","lng":21.5166667,"fcodeName":"first-order administrative division","toponymName":"Opština Gazi Baba","fcl":"A","name":"Opština Gazi Baba","fcode":"ADM1","geonameId":863853,"lat":42.05,"adminName1":"Gazi Baba","population":0},{"countryName":"Macedonia","adminCode1":"33","fclName":"country, state, region,...","countryCode":"MK","lng":22.4,"fcodeName":"first-order administrative division","toponymName":"Opština Gevgelija","fcl":"A","name":"Opština Gevgelija","fcode":"ADM1","geonameId":863854,"lat":41.2,"adminName1":"Gevgelija","population":0},{"countryName":"Macedonia","adminCode1":"D4","fclName":"country, state, region,...","countryCode":"MK","lng":20.9333333,"fcodeName":"first-order administrative division","toponymName":"Opština Gostivar","fcl":"A","name":"Opština Gostivar","fcode":"ADM1","geonameId":863855,"lat":41.8,"adminName1":"Gostivar","population":0},{"countryName":"Macedonia","adminCode1":"35","fclName":"country, state, region,...","countryCode":"MK","lng":21.9166667,"fcodeName":"first-order administrative division","toponymName":"Opština Gradsko","fcl":"A","name":"Opština Gradsko","fcode":"ADM1","geonameId":862974,"lat":41.6,"adminName1":"Gradsko","population":0},{"countryName":"Macedonia","adminCode1":"36","fclName":"country, state, region,...","countryCode":"MK","lng":21.6333333,"fcodeName":"first-order administrative division","toponymName":"Opština Ilinden","fcl":"A","name":"Opština Ilinden","fcode":"ADM1","geonameId":863856,"lat":42,"adminName1":"Ilinden","population":0},{"countryName":"Macedonia","adminCode1":"D5","fclName":"country, state, region,...","countryCode":"MK","lng":21.1333333,"fcodeName":"first-order administrative division","toponymName":"Opština Jegunovce","fcl":"A","name":"Opština Jegunovce","fcode":"ADM1","geonameId":863858,"lat":42.05,"adminName1":"Jegunovce","population":0},{"countryName":"Macedonia","adminCode1":"40","fclName":"country, state, region,...","countryCode":"MK","lng":22.2833333,"fcodeName":"first-order administrative division","toponymName":"Opština Karbinci","fcl":"A","name":"Opština Karbinci","fcode":"ADM1","geonameId":862960,"lat":41.8,"adminName1":"Karbinci","population":0},{"countryName":"Macedonia","adminCode1":"41","fclName":"country, state, region,...","countryCode":"MK","lng":21.3833333,"fcodeName":"first-order administrative division","toponymName":"Opština Karpoš","fcl":"A","name":"Opština Karpoš","fcode":"ADM1","geonameId":863860,"lat":42,"adminName1":"Karpoš","population":0},{"countryName":"Macedonia","adminCode1":"D6","fclName":"country, state, region,...","countryCode":"MK","lng":21.95,"fcodeName":"first-order administrative division","toponymName":"Opština Kavadarci","fcl":"A","name":"Opština Kavadarci","fcode":"ADM1","geonameId":863861,"lat":41.3833333,"adminName1":"Kavadarci","population":0},{"countryName":"Macedonia","adminCode1":"44","fclName":"country, state, region,...","countryCode":"MK","lng":21.516667,"fcodeName":"first-order administrative division","toponymName":"Opština Kisela Voda","fcl":"A","name":"Opština Kisela Voda","fcode":"ADM1","geonameId":863863,"lat":41.95,"adminName1":"Kisela Voda","population":0},{"countryName":"Macedonia","adminCode1":"43","fclName":"country, state, region,...","countryCode":"MK","lng":20.95,"fcodeName":"first-order administrative division","toponymName":"Opština Kičevo","fcl":"A","name":"Opština Kičevo","fcode":"ADM1","geonameId":863862,"lat":41.5166667,"adminName1":"Kičevo","population":0},{"countryName":"Macedonia","adminCode1":"47","fclName":"country, state, region,...","countryCode":"MK","lng":22.4,"fcodeName":"first-order administrative division","toponymName":"Opština Konče","fcl":"A","name":"Opština Konče","fcode":"ADM1","geonameId":862953,"lat":41.5333333,"adminName1":"Konče","population":0},{"countryName":"Macedonia","adminCode1":"46","fclName":"country, state, region,...","countryCode":"MK","lng":22.4,"fcodeName":"first-order administrative division","toponymName":"Opština Kočani","fcl":"A","name":"Opština Kočani","fcode":"ADM1","geonameId":863865,"lat":41.9833333,"adminName1":"Kočani","population":0},{"countryName":"Macedonia","adminCode1":"51","fclName":"country, state, region,...","countryCode":"MK","lng":22.1666667,"fcodeName":"first-order administrative division","toponymName":"Opština Kratovo","fcl":"A","name":"Opština Kratovo","fcode":"ADM1","geonameId":789090,"lat":42.0833333,"adminName1":"Kratovo","population":0},{"countryName":"Macedonia","adminCode1":"52","fclName":"country, state, region,...","countryCode":"MK","lng":22.3333333,"fcodeName":"first-order administrative division","toponymName":"Opština Kriva Palanka","fcl":"A","name":"Opština Kriva Palanka","fcode":"ADM1","geonameId":863869,"lat":42.25,"adminName1":"Kriva Palanka","population":0},{"countryName":"Macedonia","adminCode1":"53","fclName":"country, state, region,...","countryCode":"MK","lng":21.3666667,"fcodeName":"first-order administrative division","toponymName":"Opština Krivogaštani","fcl":"A","name":"Opština Krivogaštani","fcode":"ADM1","geonameId":863870,"lat":41.3333333,"adminName1":"Krivogaštani","population":0},{"countryName":"Macedonia","adminCode1":"54","fclName":"country, state, region,...","countryCode":"MK","lng":21.2666667,"fcodeName":"first-order administrative division","toponymName":"Opština Kruševo","fcl":"A","name":"Opština Kruševo","fcode":"ADM1","geonameId":863871,"lat":41.3666667,"adminName1":"Kruševo","population":0},{"countryName":"Macedonia","adminCode1":"D7","fclName":"country, state, region,...","countryCode":"MK","lng":21.7333333,"fcodeName":"first-order administrative division","toponymName":"Opština Kumanovo","fcl":"A","name":"Opština Kumanovo","fcode":"ADM1","geonameId":863873,"lat":42.1166667,"adminName1":"Kumanovo","population":0},{"countryName":"Macedonia","adminCode1":"60","fclName":"country, state, region,...","countryCode":"MK","lng":21.9333333,"fcodeName":"first-order administrative division","toponymName":"Opština Lozovo","fcl":"A","name":"Opština Lozovo","fcode":"ADM1","geonameId":862975,"lat":41.75,"adminName1":"Lozovo","population":0},{"countryName":"Macedonia","adminCode1":"62","fclName":"country, state, region,...","countryCode":"MK","lng":22.5833333,"fcodeName":"first-order administrative division","toponymName":"Opština Makedonska Kamenica","fcl":"A","name":"Opština Makedonska Kamenica","fcode":"ADM1","geonameId":862956,"lat":42.05,"adminName1":"Makedonska Kamenica","population":0},{"countryName":"Macedonia","adminCode1":"D8","fclName":"country, state, region,...","countryCode":"MK","lng":21.2333333,"fcodeName":"first-order administrative division","toponymName":"Opština Makedonski Brod","fcl":"A","name":"Opština Makedonski Brod","fcode":"ADM1","geonameId":863877,"lat":41.55,"adminName1":"Makedonski Brod","population":0},{"countryName":"Macedonia","adminCode1":"E4","fclName":"country, state, region,...","countryCode":"MK","lng":20.683333,"fcodeName":"first-order administrative division","toponymName":"Opština Mavrovo i Rostuša","fcl":"A","name":"Opština Mavrovo i Rostuša","fcode":"ADM1","geonameId":863892,"lat":41.566667,"adminName1":"Opština Rostuša","population":0},{"countryName":"Macedonia","adminCode1":"D9","fclName":"country, state, region,...","countryCode":"MK","lng":21.3833333,"fcodeName":"first-order administrative division","toponymName":"Opština Mogila","fcl":"A","name":"Opština Mogila","fcode":"ADM1","geonameId":863488,"lat":41.1666667,"adminName1":"Mogila","population":0},{"countryName":"Macedonia","adminCode1":"69","fclName":"country, state, region,...","countryCode":"MK","lng":22.15,"fcodeName":"first-order administrative division","toponymName":"Opština Negotino","fcl":"A","name":"Opština Negotino","fcode":"ADM1","geonameId":863881,"lat":41.5166667,"adminName1":"Negotino","population":0},{"countryName":"Macedonia","adminCode1":"E1","fclName":"country, state, region,...","countryCode":"MK","lng":21.5333333,"fcodeName":"first-order administrative division","toponymName":"Opština Novaci","fcl":"A","name":"Opština Novaci","fcode":"ADM1","geonameId":863468,"lat":41.05,"adminName1":"Novaci","population":0},{"countryName":"Macedonia","adminCode1":"72","fclName":"country, state, region,...","countryCode":"MK","lng":22.9,"fcodeName":"first-order administrative division","toponymName":"Opština Novo Selo","fcl":"A","name":"Opština Novo Selo","fcode":"ADM1","geonameId":862945,"lat":41.4166667,"adminName1":"Novo Selo","population":0},{"countryName":"Macedonia","adminCode1":"E2","fclName":"country, state, region,...","countryCode":"MK","lng":20.85,"fcodeName":"first-order administrative division","toponymName":"Opština Ohrid","fcl":"A","name":"Opština Ohrid","fcode":"ADM1","geonameId":863883,"lat":41.0666667,"adminName1":"Ohrid","population":0},{"countryName":"Macedonia","adminCode1":"77","fclName":"country, state, region,...","countryCode":"MK","lng":21.05,"fcodeName":"first-order administrative division","toponymName":"Opština Oslomej","fcl":"A","name":"Opština Oslomej","fcode":"ADM1","geonameId":863885,"lat":41.6,"adminName1":"Oslomej","population":0},{"countryName":"Macedonia","adminCode1":"78","fclName":"country, state, region,...","countryCode":"MK","lng":22.9166667,"fcodeName":"first-order administrative division","toponymName":"Opština Pehčevo","fcl":"A","name":"Opština Pehčevo","fcode":"ADM1","geonameId":862938,"lat":41.7833333,"adminName1":"Pehčevo","population":0},{"countryName":"Macedonia","adminCode1":"79","fclName":"country, state, region,...","countryCode":"MK","lng":21.7166667,"fcodeName":"first-order administrative division","toponymName":"Opština Petrovec","fcl":"A","name":"Opština Petrovec","fcode":"ADM1","geonameId":863886,"lat":41.9166667,"adminName1":"Petrovec","population":0},{"countryName":"Macedonia","adminCode1":"80","fclName":"country, state, region,...","countryCode":"MK","lng":21.1166667,"fcodeName":"first-order administrative division","toponymName":"Opština Plasnica","fcl":"A","name":"Opština Plasnica","fcode":"ADM1","geonameId":863887,"lat":41.45,"adminName1":"Plasnica","population":0},{"countryName":"Macedonia","adminCode1":"83","fclName":"country, state, region,...","countryCode":"MK","lng":22.15,"fcodeName":"first-order administrative division","toponymName":"Opština Probištip","fcl":"A","name":"Opština Probištip","fcode":"ADM1","geonameId":863889,"lat":41.9666667,"adminName1":"Probištip","population":0},{"countryName":"Macedonia","adminCode1":"84","fclName":"country, state, region,...","countryCode":"MK","lng":22.5,"fcodeName":"first-order administrative division","toponymName":"Opština Radoviš","fcl":"A","name":"Opština Radoviš","fcode":"ADM1","geonameId":863890,"lat":41.65,"adminName1":"Radoviš","population":0},{"countryName":"Macedonia","adminCode1":"86","fclName":"country, state, region,...","countryCode":"MK","lng":21.0166667,"fcodeName":"first-order administrative division","toponymName":"Opština Resen","fcl":"A","name":"Opština Resen","fcode":"ADM1","geonameId":786339,"lat":41.0333333,"adminName1":"Resen","population":16539},{"countryName":"Macedonia","adminCode1":"87","fclName":"country, state, region,...","countryCode":"MK","lng":21.9166667,"fcodeName":"first-order administrative division","toponymName":"Opština Rosoman","fcl":"A","name":"Opština Rosoman","fcode":"ADM1","geonameId":862973,"lat":41.5,"adminName1":"Rosoman","population":0},{"countryName":"Macedonia","adminCode1":"90","fclName":"country, state, region,...","countryCode":"MK","lng":21.2666667,"fcodeName":"first-order administrative division","toponymName":"Opština Saraj","fcl":"A","name":"Opština Saraj","fcode":"ADM1","geonameId":863894,"lat":41.9833333,"adminName1":"Saraj","population":0},{"countryName":"Macedonia","adminCode1":"92","fclName":"country, state, region,...","countryCode":"MK","lng":21.316667,"fcodeName":"first-order administrative division","toponymName":"Opština Sopište","fcl":"A","name":"Opština Sopište","fcode":"ADM1","geonameId":863896,"lat":41.9,"adminName1":"Sopište","population":0},{"countryName":"Macedonia","adminCode1":"97","fclName":"country, state, region,...","countryCode":"MK","lng":21.9333333,"fcodeName":"first-order administrative division","toponymName":"Opština Staro Nagoričane","fcl":"A","name":"Opština Staro Nagoričane","fcode":"ADM1","geonameId":863899,"lat":42.2333333,"adminName1":"Staro Nagoričane","population":0},{"countryName":"Macedonia","adminCode1":"E6","fclName":"country, state, region,...","countryCode":"MK","lng":20.65,"fcodeName":"first-order administrative division","toponymName":"Opština Struga","fcl":"A","name":"Opština Struga","fcode":"ADM1","geonameId":863901,"lat":41.2,"adminName1":"Struga","population":0},{"countryName":"Macedonia","adminCode1":"E7","fclName":"country, state, region,...","countryCode":"MK","lng":22.5833333,"fcodeName":"first-order administrative division","toponymName":"Opština Strumica","fcl":"A","name":"Opština Strumica","fcode":"ADM1","geonameId":863902,"lat":41.45,"adminName1":"Strumica","population":0},{"countryName":"Macedonia","adminCode1":"A2","fclName":"country, state, region,...","countryCode":"MK","lng":21.4333333,"fcodeName":"first-order administrative division","toponymName":"Opština Studeničani","fcl":"A","name":"Opština Studeničani","fcode":"ADM1","geonameId":863903,"lat":41.8333333,"adminName1":"Studeničani","population":0},{"countryName":"Macedonia","adminCode1":"A4","fclName":"country, state, region,...","countryCode":"MK","lng":21.983333,"fcodeName":"first-order administrative division","toponymName":"Opština Sveti Nikole","fcl":"A","name":"Opština Sveti Nikole","fcode":"ADM1","geonameId":863905,"lat":41.9,"adminName1":"Sveti Nikole","population":0},{"countryName":"Macedonia","adminCode1":"A5","fclName":"country, state, region,...","countryCode":"MK","lng":21.05,"fcodeName":"first-order administrative division","toponymName":"Opština Tearce","fcl":"A","name":"Opština Tearce","fcode":"ADM1","geonameId":863906,"lat":42.1,"adminName1":"Tearce","population":0},{"countryName":"Macedonia","adminCode1":"E8","fclName":"country, state, region,...","countryCode":"MK","lng":20.95,"fcodeName":"first-order administrative division","toponymName":"Opština Tetovo","fcl":"A","name":"Opština Tetovo","fcode":"ADM1","geonameId":863907,"lat":42.05,"adminName1":"Tetovo","population":0},{"countryName":"Macedonia","adminCode1":"E9","fclName":"country, state, region,...","countryCode":"MK","lng":22.5,"fcodeName":"first-order administrative division","toponymName":"Opština Valandovo","fcl":"A","name":"Opština Valandovo","fcode":"ADM1","geonameId":784732,"lat":41.3333333,"adminName1":"Valandovo","population":11825},{"countryName":"Macedonia","adminCode1":"A9","fclName":"country, state, region,...","countryCode":"MK","lng":22.6666667,"fcodeName":"first-order administrative division","toponymName":"Opština Vasilevo","fcl":"A","name":"Opština Vasilevo","fcode":"ADM1","geonameId":862947,"lat":41.5333333,"adminName1":"Vasilevo","population":0},{"countryName":"Macedonia","adminCode1":"F1","fclName":"country, state, region,...","countryCode":"MK","lng":21.7166667,"fcodeName":"first-order administrative division","toponymName":"Opština Veles","fcl":"A","name":"Opština Veles","fcode":"ADM1","geonameId":863909,"lat":41.75,"adminName1":"Veles","population":0},{"countryName":"Macedonia","adminCode1":"B3","fclName":"country, state, region,...","countryCode":"MK","lng":20.5833333,"fcodeName":"first-order administrative division","toponymName":"Opština Vevčani","fcl":"A","name":"Opština Vevčani","fcode":"ADM1","geonameId":863911,"lat":41.2333333,"adminName1":"Vevčani","population":0},{"countryName":"Macedonia","adminCode1":"B4","fclName":"country, state, region,...","countryCode":"MK","lng":22.6,"fcodeName":"first-order administrative division","toponymName":"Opština Vinica","fcl":"A","name":"Opština Vinica","fcode":"ADM1","geonameId":863912,"lat":41.9,"adminName1":"Vinica","population":0},{"countryName":"Macedonia","adminCode1":"B6","fclName":"country, state, region,...","countryCode":"MK","lng":21.05,"fcodeName":"first-order administrative division","toponymName":"Opština Vraneštica","fcl":"A","name":"Opština Vraneštica","fcode":"ADM1","geonameId":863913,"lat":41.5,"adminName1":"Vraneštica","population":0},{"countryName":"Macedonia","adminCode1":"B7","fclName":"country, state, region,...","countryCode":"MK","lng":20.85,"fcodeName":"first-order administrative division","toponymName":"Opština Vrapčište","fcl":"A","name":"Opština Vrapčište","fcode":"ADM1","geonameId":863914,"lat":41.85,"adminName1":"Vrapčište","population":0},{"countryName":"Macedonia","adminCode1":"C1","fclName":"country, state, region,...","countryCode":"MK","lng":20.9,"fcodeName":"first-order administrative division","toponymName":"Opština Zajas","fcl":"A","name":"Opština Zajas","fcode":"ADM1","geonameId":863917,"lat":41.6,"adminName1":"Zajas","population":0},{"countryName":"Macedonia","adminCode1":"C2","fclName":"country, state, region,...","countryCode":"MK","lng":21.5833333,"fcodeName":"first-order administrative division","toponymName":"Opština Zelenikovo","fcl":"A","name":"Opština Zelenikovo","fcode":"ADM1","geonameId":863918,"lat":41.8333333,"adminName1":"Zelenikovo","population":0},{"countryName":"Macedonia","adminCode1":"C6","fclName":"country, state, region,...","countryCode":"MK","lng":22.45,"fcodeName":"first-order administrative division","toponymName":"Opština Zrnovci","fcl":"A","name":"Opština Zrnovci","fcode":"ADM1","geonameId":862958,"lat":41.8333333,"adminName1":"Zrnovci","population":0},{"countryName":"Macedonia","adminCode1":"C8","fclName":"country, state, region,...","countryCode":"MK","lng":21.4666667,"fcodeName":"first-order administrative division","toponymName":"Opština Čair","fcl":"A","name":"Opština Čair","fcode":"ADM1","geonameId":863836,"lat":42.0833333,"adminName1":"Čair","population":0},{"countryName":"Macedonia","adminCode1":"C9","fclName":"country, state, region,...","countryCode":"MK","lng":21.6666667,"fcodeName":"first-order administrative division","toponymName":"Opština Čaška","fcl":"A","name":"Opština Čaška","fcode":"ADM1","geonameId":863838,"lat":41.65,"adminName1":"Čaška","population":0},{"countryName":"Macedonia","adminCode1":"19","fclName":"country, state, region,...","countryCode":"MK","lng":22.266667,"fcodeName":"first-order administrative division","toponymName":"Opština Češinovo","fcl":"A","name":"Opština Češinovo","fcode":"ADM1","geonameId":862977,"lat":41.9,"adminName1":"Češinovo","population":0},{"countryName":"Macedonia","adminCode1":"20","fclName":"country, state, region,...","countryCode":"MK","lng":21.4166667,"fcodeName":"first-order administrative division","toponymName":"Opština Čučer-Sandevo","fcl":"A","name":"Opština Čučer-Sandevo","fcode":"ADM1","geonameId":863842,"lat":42.1666667,"adminName1":"Čučer-Sandevo","population":0},{"countryName":"Macedonia","adminCode1":"98","fclName":"country, state, region,...","countryCode":"MK","lng":22.2,"fcodeName":"first-order administrative division","toponymName":"Opština Štip","fcl":"A","name":"Opština Štip","fcode":"ADM1","geonameId":863900,"lat":41.7,"adminName1":"Štip","population":0},{"countryName":"Macedonia","adminCode1":"A3","fclName":"country, state, region,...","countryCode":"MK","lng":21.4166667,"fcodeName":"first-order administrative division","toponymName":"Opština Šuto Orizari","fcl":"A","name":"Opština Šuto Orizari","fcode":"ADM1","geonameId":863904,"lat":42.05,"adminName1":"Šuto Orizari","population":0},{"countryName":"Macedonia","adminCode1":"C3","fclName":"country, state, region,...","countryCode":"MK","lng":21.1333333,"fcodeName":"first-order administrative division","toponymName":"Opština Želino","fcl":"A","name":"Opština Želino","fcode":"ADM1","geonameId":863919,"lat":41.9333333,"adminName1":"Želino","population":0},{"countryName":"Macedonia","adminCode1":"E3","fclName":"country, state, region,...","countryCode":"MK","lng":21.633333,"fcodeName":"first-order administrative division","toponymName":"Prilep","fcl":"A","name":"Prilep","fcode":"ADM1","geonameId":863888,"lat":41.383333,"adminName1":"Prilep","population":0}]}