{"totalResultsCount":20,"geonames":[{"countryName":"Hungary","adminCode1":"02","fclName":"country, state, region,...","countryCode":"HU","lng":18.25,"fcodeName":"first-order administrative division","toponymName":"Baranya megye","fcl":"A","name":"Baranya megye","fcode":"ADM1","geonameId":3055399,"lat":46.0833333,"adminName1":"Baranya","population":398215},{"countryName":"Hungary","adminCode1":"04","fclName":"country, state, region,...","countryCode":"HU","lng":21,"fcodeName":"first-order administrative division","toponymName":"Borsod-Abaúj-Zemplén megye","fcl":"A","name":"Borsod-Abaúj-Zemplén","fcode":"ADM1","geonameId":722064,"lat":48.25,"adminName1":"Borsod-Abaúj-Zemplén","population":718951},{"countryName":"Hungary","adminCode1":"05","fclName":"country, state, region,...","countryCode":"HU","lng":19.0833333,"fcodeName":"first-order administrative division","toponymName":"Budapest főváros","fcl":"A","name":"Budapest főváros","fcode":"ADM1","geonameId":3054638,"lat":47.5,"adminName1":"Budapest","population":1696128},{"countryName":"Hungary","adminCode1":"01","fclName":"country, state, region,...","countryCode":"HU","lng":19.4166667,"fcodeName":"first-order administrative division","toponymName":"Bács-Kiskun megye","fcl":"A","name":"Bács-Kiskun","fcode":"ADM1","geonameId":3055744,"lat":46.5,"adminName1":"Bács-Kiskun","population":536290},{"countryName":"Hungary","adminCode1":"03","fclName":"country, state, region,...","countryCode":"HU","lng":21,"fcodeName":"first-order administrative division","toponymName":"Békés megye","fcl":"A","name":"Békés megye","fcode":"ADM1","geonameId":722433,"lat":46.75,"adminName1":"Békés","population":382190},{"countryName":"Hungary","adminCode1":"06","fclName":"country, state, region,...","countryCode":"HU","lng":20.25,"fcodeName":"first-order administrative division","toponymName":"Csongrád megye","fcl":"A","name":"Csongrád megye","fcode":"ADM1","geonameId":721589,"lat":46.4166667,"adminName1":"Csongrád","population":423751},{"countryName":"Hungary","adminCode1":"08","fclName":"country, state, region,...","countryCode":"HU","lng":18.5833333,"fcodeName":"first-order administrative division","toponymName":"Fejér megye","fcl":"A","name":"Fejér","fcode":"ADM1","geonameId":3053028,"lat":47.1666667,"adminName1":"Fejér","population":428711},{"countryName":"Hungary","adminCode1":"09","fclName":"country, state, region,...","countryCode":"HU","lng":17.25,"fcodeName":"first-order administrative division","toponymName":"Győr-Moson-Sopron megye","fcl":"A","name":"Győr-Moson-Sopron","fcode":"ADM1","geonameId":3051977,"lat":47.6666667,"adminName1":"Győr-Moson-Sopron","population":442667},{"countryName":"Hungary","adminCode1":"10","fclName":"country, state, region,...","countryCode":"HU","lng":21.5,"fcodeName":"first-order administrative division","toponymName":"Hajdú-Bihar megye","fcl":"A","name":"Hajdú-Bihar","fcode":"ADM1","geonameId":720293,"lat":47.4166667,"adminName1":"Hajdú-Bihar","population":545641},{"countryName":"Hungary","adminCode1":"11","fclName":"country, state, region,...","countryCode":"HU","lng":20.25,"fcodeName":"first-order administrative division","toponymName":"Heves megye","fcl":"A","name":"Heves megye","fcode":"ADM1","geonameId":720002,"lat":47.8333333,"adminName1":"Heves","population":319460},{"countryName":"Hungary","adminCode1":"20","fclName":"country, state, region,...","countryCode":"HU","lng":20.5,"fcodeName":"first-order administrative division","toponymName":"Jász-Nagykun-Szolnok megye","fcl":"A","name":"Jász-Nagykun-Szolnok","fcode":"ADM1","geonameId":719637,"lat":47.25,"adminName1":"Jász-Nagykun-Szolnok","population":403622},{"countryName":"Hungary","adminCode1":"12","fclName":"country, state, region,...","countryCode":"HU","lng":18.3333333,"fcodeName":"first-order administrative division","toponymName":"Komárom-Esztergom megye","fcl":"A","name":"Komárom-Esztergom","fcode":"ADM1","geonameId":3049518,"lat":47.5833333,"adminName1":"Komárom-Esztergom","population":315036},{"countryName":"Hungary","adminCode1":"14","fclName":"country, state, region,...","countryCode":"HU","lng":19.5833333,"fcodeName":"first-order administrative division","toponymName":"Nógrád megye","fcl":"A","name":"Nógrád megye","fcode":"ADM1","geonameId":3047348,"lat":48,"adminName1":"Nógrád","population":213030},{"countryName":"Hungary","adminCode1":"16","fclName":"country, state, region,...","countryCode":"HU","lng":19.3333333,"fcodeName":"first-order administrative division","toponymName":"Pest megye","fcl":"A","name":"Pest megye","fcode":"ADM1","geonameId":3046431,"lat":47.4166667,"adminName1":"Pest","population":1176550},{"countryName":"Hungary","adminCode1":"17","fclName":"country, state, region,...","countryCode":"HU","lng":17.5833333,"fcodeName":"first-order administrative division","toponymName":"Somogy megye","fcl":"A","name":"Somogy megye","fcode":"ADM1","geonameId":3045226,"lat":46.4166667,"adminName1":"Somogy","population":328496},{"countryName":"Hungary","adminCode1":"18","fclName":"country, state, region,...","countryCode":"HU","lng":22.1666667,"fcodeName":"first-order administrative division","toponymName":"Szabolcs-Szatmár-Bereg megye","fcl":"A","name":"Szabolcs-Szatmár-Bereg","fcode":"ADM1","geonameId":715593,"lat":48,"adminName1":"Szabolcs-Szatmár-Bereg","population":576054},{"countryName":"Hungary","adminCode1":"21","fclName":"country, state, region,...","countryCode":"HU","lng":18.5833333,"fcodeName":"first-order administrative division","toponymName":"Tolna megye","fcl":"A","name":"Tolna megye","fcode":"ADM1","geonameId":3043845,"lat":46.5,"adminName1":"Tolna","population":240966},{"countryName":"Hungary","adminCode1":"22","fclName":"country, state, region,...","countryCode":"HU","lng":16.75,"fcodeName":"first-order administrative division","toponymName":"Vas megye","fcl":"A","name":"Vas","fcode":"ADM1","geonameId":3043047,"lat":47.1666667,"adminName1":"Vas","population":263251},{"countryName":"Hungary","adminCode1":"23","fclName":"country, state, region,...","countryCode":"HU","lng":17.6666667,"fcodeName":"first-order administrative division","toponymName":"Veszprém megye","fcl":"A","name":"Veszprém megye","fcode":"ADM1","geonameId":3042925,"lat":47.1666667,"adminName1":"Veszprém","population":363706},{"countryName":"Hungary","adminCode1":"24","fclName":"country, state, region,...","countryCode":"HU","lng":16.8333333,"fcodeName":"first-order administrative division","toponymName":"Zala megye","fcl":"A","name":"Zala","fcode":"ADM1","geonameId":3042613,"lat":46.6666667,"adminName1":"Zala","population":293443}]}