{"totalResultsCount":12,"geonames":[{"countryName":"Albania","adminCode1":"40","fclName":"country, state, region,...","countryCode":"AL","lng":20.0666667,"fcodeName":"first-order administrative division","toponymName":"Qarku i Beratit","fcl":"A","numberOfChildren":3,"name":"Qarku i Beratit","fcode":"ADM1","geonameId":865730,"lat":40.65,"adminName1":"Berat","population":0},{"countryName":"Albania","adminCode1":"41","fclName":"country, state, region,...","countryCode":"AL","lng":20.1666667,"fcodeName":"first-order administrative division","toponymName":"Qarku i Dibrës","fcl":"A","numberOfChildren":3,"name":"Qarku i Dibrës","fcode":"ADM1","geonameId":865731,"lat":41.6666667,"adminName1":"Dibër","population":0},{"countryName":"Albania","adminCode1":"42","fclName":"country, state, region,...","countryCode":"AL","lng":19.5833333,"fcodeName":"first-order administrative division","toponymName":"Qarku i Durrësit","fcl":"A","numberOfChildren":2,"name":"Qarku i Durrësit","fcode":"ADM1","geonameId":3344947,"lat":41.4833333,"adminName1":"Durrës","population":0},{"countryName":"Albania","adminCode1":"43","fclName":"country, state, region,...","countryCode":"AL","lng":20.3,"fcodeName":"first-order administrative division","toponymName":"Qarku i Elbasanit","fcl":"A","numberOfChildren":4,"name":"Qarku i Elbasanit","fcode":"ADM1","geonameId":865732,"lat":41.1166667,"adminName1":"Elbasan","population":0},{"countryName":"Albania","adminCode1":"44","fclName":"country, state, region,...","countryCode":"AL","lng":19.75,"fcodeName":"first-order administrative division","toponymName":"Qarku i Fierit","fcl":"A","numberOfChildren":3,"name":"Qarku i Fierit","fcode":"ADM1","geonameId":3344948,"lat":40.75,"adminName1":"Fier","population":0},{"countryName":"Albania","adminCode1":"45","fclName":"country, state, region,...","countryCode":"AL","lng":20.2,"fcodeName":"first-order administrative division","toponymName":"Qarku i Gjirokastrës","fcl":"A","numberOfChildren":3,"name":"Qarku i Gjirokastrës","fcode":"ADM1","geonameId":865733,"lat":40.2166667,"adminName1":"Gjirokastër","population":0},{"countryName":"Albania","adminCode1":"46","fclName":"country, state, region,...","countryCode":"AL","lng":20.65,"fcodeName":"first-order administrative division","toponymName":"Qarku i Korçës","fcl":"A","numberOfChildren":4,"name":"Qarku i Korçës","fcode":"ADM1","geonameId":865734,"lat":40.5833333,"adminName1":"Korçë","population":0},{"countryName":"Albania","adminCode1":"47","fclName":"country, state, region,...","countryCode":"AL","lng":20.3666667,"fcodeName":"first-order administrative division","toponymName":"Qarku i Kukësit","fcl":"A","numberOfChildren":3,"name":"Qarku i Kukësit","fcode":"ADM1","geonameId":865735,"lat":42.2,"adminName1":"Kukës","population":0},{"countryName":"Albania","adminCode1":"48","fclName":"country, state, region,...","countryCode":"AL","lng":19.8666667,"fcodeName":"first-order administrative division","toponymName":"Qarku i Lezhës","fcl":"A","numberOfChildren":3,"name":"Qarku i Lezhës","fcode":"ADM1","geonameId":3344949,"lat":41.8333333,"adminName1":"Lezhë","population":0},{"countryName":"Albania","adminCode1":"49","fclName":"country, state, region,...","countryCode":"AL","lng":19.75,"fcodeName":"first-order administrative division","toponymName":"Qarku i Shkodrës","fcl":"A","numberOfChildren":3,"name":"Qarku i Shkodrës","fcode":"ADM1","geonameId":3344950,"lat":42.1833333,"adminName1":"Shkodër","population":0},{"countryName":"Albania","adminCode1":"50","fclName":"country, state, region,...","countryCode":"AL","lng":19.8916667,"fcodeName":"first-order administrative division","toponymName":"Qarku i Tiranës","fcl":"A","numberOfChildren":3,"name":"Qarku i Tiranës","fcode":"ADM1","geonameId":3344951,"lat":41.3,"adminName1":"Tiranë","population":0},{"countryName":"Albania","adminCode1":"51","fclName":"country, state, region,...","countryCode":"AL","lng":19.8,"fcodeName":"first-order administrative division","toponymName":"Qarku i Vlorës","fcl":"A","numberOfChildren":3,"name":"Qarku i Vlorës","fcode":"ADM1","geonameId":3344952,"lat":40.1666667,"adminName1":"Vlorë","population":0}]}